{
"type": "FeatureCollection",
"crs": { "type": "name", "properties": { "name": "urn:ogc:def:crs:OGC:1.3:CRS84" } },
                                                                                
"features": [
{ "type": "Feature", "properties": { "cartodb_id": 350, "notes": "F-all times", "line": "F", "url": "http:\/\/web.mta.info\/nyct\/service\/", "name": "57th St" }, "geometry": { "type": "Point", "coordinates": [ -73.977368000851683, 40.764085000817104 ] } },
{ "type": "Feature", "properties": { "cartodb_id": 400, "notes": "N-all times, Q-nights, R-all times exc nights", "line": "N-R", "url": "http:\/\/web.mta.info\/nyct\/service\/", "name": "Prince St" }, "geometry": { "type": "Point", "coordinates": [ -73.997702000459853, 40.72432866597569 ] } },
{ "type": "Feature", "properties": { "cartodb_id": 401, "notes": "N-all times, Q-nights, R-all times exc nights", "line": "N-R", "url": "http:\/\/web.mta.info\/nyct\/service\/", "name": "8th St - NYU" }, "geometry": { "type": "Point", "coordinates": [ -73.992507998491448, 40.730464998539901 ] } },
{ "type": "Feature", "properties": { "cartodb_id": 1, "notes": "4 nights, 6-all times, 6 Express-weekdays AM southbound, PM northbound", "line": "4-6-6 Express", "url": "http:\/\/web.mta.info\/nyct\/service\/", "name": "Astor Pl" }, "geometry": { "type": "Point", "coordinates": [ -73.991069998619636, 40.730054000289762 ] } },
{ "type": "Feature", "properties": { "cartodb_id": 2, "notes": "4 nights, 6-all times, 6 Express-weekdays AM southbound, PM northbound", "line": "4-6-6 Express", "url": "http:\/\/web.mta.info\/nyct\/service\/", "name": "Canal St" }, "geometry": { "type": "Point", "coordinates": [ -74.000192999273281, 40.718803001077056 ] } },
{ "type": "Feature", "properties": { "cartodb_id": 3, "notes": "1-all times, 2-nights", "line": "1-2", "url": "http:\/\/web.mta.info\/nyct\/service\/", "name": "50th St" }, "geometry": { "type": "Point", "coordinates": [ -73.983848999866254, 40.76172799961418 ] } },
{ "type": "Feature", "properties": { "cartodb_id": 5, "notes": "4-nights, 3-all other times", "line": "3-4", "url": "http:\/\/web.mta.info\/nyct\/service\/", "name": "Pennsylvania Ave" }, "geometry": { "type": "Point", "coordinates": [ -73.894885911540584, 40.664714451435657 ] } },
{ "type": "Feature", "properties": { "cartodb_id": 421, "notes": "N-nights, R-all other times", "line": "N-R", "url": "http:\/\/web.mta.info\/nyct\/service\/", "name": "Whitehall St" }, "geometry": { "type": "Point", "coordinates": [ -74.013007237427189, 40.703142373599128 ] } },
{ "type": "Feature", "properties": { "cartodb_id": 31, "notes": "4,6-all times, 5-all times exc nights, 6 Express-weekdays AM southbound, PM northbound", "line": "4-5-6-6 Express", "url": "http:\/\/web.mta.info\/nyct\/service\/", "name": "Grand Central - 42nd St" }, "geometry": { "type": "Point", "coordinates": [ -73.976713299258392, 40.751807429816338 ] } },
{ "type": "Feature", "properties": { "cartodb_id": 127, "notes": "A-all times, C-all times exc nights", "line": "A-C", "url": "http:\/\/web.mta.info\/nyct\/service\/", "name": "Nostrand Ave" }, "geometry": { "type": "Point", "coordinates": [ -73.950426000996785, 40.680438000062246 ] } },
{ "type": "Feature", "properties": { "cartodb_id": 100, "notes": "Q-all times", "line": "Q", "url": "http:\/\/web.mta.info\/nyct\/service\/", "name": "Ocean Pkwy" }, "geometry": { "type": "Point", "coordinates": [ -73.968500999751754, 40.576311667080894 ] } },
{ "type": "Feature", "properties": { "cartodb_id": 338, "notes": "F-all times", "line": "F", "url": "http:\/\/web.mta.info\/nyct\/service\/", "name": "Ave N" }, "geometry": { "type": "Point", "coordinates": [ -73.974048508731428, 40.614356711908805 ] } },
{ "type": "Feature", "properties": { "cartodb_id": 47, "notes": "4-all times", "line": "4", "url": "http:\/\/web.mta.info\/nyct\/service\/", "name": "149th St - Grand Concourse" }, "geometry": { "type": "Point", "coordinates": [ -73.92738475426178, 40.818303443723153 ] } },
{ "type": "Feature", "properties": { "cartodb_id": 13, "notes": "Z-rush hours AM westbound, PM eastbound, J-all other times", "line": "J-Z", "url": "http:\/\/web.mta.info\/nyct\/service\/", "name": "Norwood Ave" }, "geometry": { "type": "Point", "coordinates": [ -73.879625999107802, 40.681520000456814 ] } },
{ "type": "Feature", "properties": { "cartodb_id": 14, "notes": "Z-rush hours AM westbound, PM eastbound, J-all other times", "line": "J-Z", "url": "http:\/\/web.mta.info\/nyct\/service\/", "name": "104th-102nd Sts" }, "geometry": { "type": "Point", "coordinates": [ -73.844435000296826, 40.695165998233712 ] } },
{ "type": "Feature", "properties": { "cartodb_id": 15, "notes": "B-weekdays and evenings, D-all other times, N-nights, R-all other times, Q-all times", "line": "B-D-N-Q-R", "url": "http:\/\/web.mta.info\/nyct\/service\/", "name": "DeKalb Ave" }, "geometry": { "type": "Point", "coordinates": [ -73.981770944409448, 40.690648119969794 ] } },
{ "type": "Feature", "properties": { "cartodb_id": 16, "notes": "A-rush hours AM northbound, PM southbound, S Broad Channel to Rockaway Park-all times", "line": "A-S", "url": "http:\/\/web.mta.info\/nyct\/service\/", "name": "Beach 105th St" }, "geometry": { "type": "Point", "coordinates": [ -73.827580750345263, 40.58326843810282 ] } },
{ "type": "Feature", "properties": { "cartodb_id": 17, "notes": "A-rush hours AM northbound, PM southbound, S Broad Channel to Rockaway Park-all times", "line": "A-S", "url": "http:\/\/web.mta.info\/nyct\/service\/", "name": "Beach 90th St" }, "geometry": { "type": "Point", "coordinates": [ -73.813651404196307, 40.58809156457324 ] } },
{ "type": "Feature", "properties": { "cartodb_id": 18, "notes": "2-all times, 5-all times exc nights, skips rush hours AM southbound, PM northbound", "line": "2-5", "url": "http:\/\/web.mta.info\/nyct\/service\/", "name": "Freeman St" }, "geometry": { "type": "Point", "coordinates": [ -73.89175225349463, 40.829987446384116 ] } },
{ "type": "Feature", "properties": { "cartodb_id": 19, "notes": "2-all times, 5-all times exc nights, skips rush hours AM southbound, PM northbound", "line": "2-5", "url": "http:\/\/web.mta.info\/nyct\/service\/", "name": "Intervale Ave" }, "geometry": { "type": "Point", "coordinates": [ -73.896617384616448, 40.822142131170764 ] } },
{ "type": "Feature", "properties": { "cartodb_id": 20, "notes": "B-rush hours, D-all times, skips rush hours AM southbound, PM northbound", "line": "B-D", "url": "http:\/\/web.mta.info\/nyct\/service\/", "name": "182nd-183rd Sts" }, "geometry": { "type": "Point", "coordinates": [ -73.900740999989637, 40.856092998818632 ] } },
{ "type": "Feature", "properties": { "cartodb_id": 21, "notes": "B-rush hours, D-all times, skips rush hours AM southbound, PM northbound", "line": "B-D", "url": "http:\/\/web.mta.info\/nyct\/service\/", "name": "174th-175th Sts" }, "geometry": { "type": "Point", "coordinates": [ -73.910136000500771, 40.845899999834131 ] } },
{ "type": "Feature", "properties": { "cartodb_id": 22, "notes": "B-rush hours, D-all times, skips rush hours AM southbound, PM northbound", "line": "B-D", "url": "http:\/\/web.mta.info\/nyct\/service\/", "name": "167th St" }, "geometry": { "type": "Point", "coordinates": [ -73.91843200082252, 40.83376899862796 ] } },
{ "type": "Feature", "properties": { "cartodb_id": 234, "notes": "M-all times", "line": "M", "url": "http:\/\/web.mta.info\/nyct\/service\/", "name": "Seneca Ave" }, "geometry": { "type": "Point", "coordinates": [ -73.907581998854212, 40.702918998949002 ] } },
{ "type": "Feature", "properties": { "cartodb_id": 4, "notes": "4-nights, 3-all other times, 2-all times", "line": "2-3-4", "url": "http:\/\/web.mta.info\/nyct\/service\/", "name": "Bergen St" }, "geometry": { "type": "Point", "coordinates": [ -73.974999151168049, 40.680862136829553 ] } },
{ "type": "Feature", "properties": { "cartodb_id": 6, "notes": "1-all times, exit only northbound", "line": "1", "url": "http:\/\/web.mta.info\/nyct\/service\/", "name": "238th St" }, "geometry": { "type": "Point", "coordinates": [ -73.900870000185208, 40.884667000649721 ] } },
{ "type": "Feature", "properties": { "cartodb_id": 7, "notes": "A-nights, B-weekdays and evenings, C-all times exc nights", "line": "A-B-C", "url": "http:\/\/web.mta.info\/nyct\/service\/", "name": "Cathedral Pkwy (110th St)" }, "geometry": { "type": "Point", "coordinates": [ -73.958066706613621, 40.800581558114942 ] } },
{ "type": "Feature", "properties": { "cartodb_id": 8, "notes": "A-nights, C-all other times", "line": "A-C", "url": "http:\/\/web.mta.info\/nyct\/service\/", "name": "Kingston - Throop Aves" }, "geometry": { "type": "Point", "coordinates": [ -73.940858998712613, 40.679918999415989 ] } },
{ "type": "Feature", "properties": { "cartodb_id": 9, "notes": "E-nights, R-all other times, M-weekdays and evenings", "line": "E-M-R", "url": "http:\/\/web.mta.info\/nyct\/service\/", "name": "65th St" }, "geometry": { "type": "Point", "coordinates": [ -73.898788378330082, 40.749719529356724 ] } },
{ "type": "Feature", "properties": { "cartodb_id": 10, "notes": "E-nights, R-all other times, M-weekdays and evenings", "line": "E-M-R", "url": "http:\/\/web.mta.info\/nyct\/service\/", "name": "36th St" }, "geometry": { "type": "Point", "coordinates": [ -73.929018184615373, 40.751960044010737 ] } },
{ "type": "Feature", "properties": { "cartodb_id": 11, "notes": "J-all times, M-all times exc nights, Z-rush hours AM westbound, PM eastbound", "line": "J-M-Z", "url": "http:\/\/web.mta.info\/nyct\/service\/", "name": "Delancey St - Essex St" }, "geometry": { "type": "Point", "coordinates": [ -73.987409402029741, 40.718306056186151 ] } },
{ "type": "Feature", "properties": { "cartodb_id": 12, "notes": "Z-rush hours AM westbound, PM eastbound, J-all other times", "line": "J-Z", "url": "http:\/\/web.mta.info\/nyct\/service\/", "name": "Van Siclen Ave" }, "geometry": { "type": "Point", "coordinates": [ -73.891657727024437, 40.678028214477806 ] } },
{ "type": "Feature", "properties": { "cartodb_id": 26, "notes": "6 Express-weekdays AM southbound, PM northbound, 6-all other times", "line": "6-6 Express", "url": "http:\/\/web.mta.info\/nyct\/service\/", "name": "Buhre Ave" }, "geometry": { "type": "Point", "coordinates": [ -73.83256900003741, 40.84680999888549 ] } },
{ "type": "Feature", "properties": { "cartodb_id": 27, "notes": "6-all times, 6 Express-weekdays AM southbound, PM northbound", "line": "6-6 Express", "url": "http:\/\/web.mta.info\/nyct\/service\/", "name": "3rd Ave - 138th St" }, "geometry": { "type": "Point", "coordinates": [ -73.926138000141322, 40.810476001172574 ] } },
{ "type": "Feature", "properties": { "cartodb_id": 442, "notes": "L-all times", "line": "L", "url": "http:\/\/web.mta.info\/nyct\/service\/", "name": "6th Ave" }, "geometry": { "type": "Point", "coordinates": [ -73.997750788747766, 40.737741469810501 ] } },
{ "type": "Feature", "properties": { "cartodb_id": 28, "notes": "6 Express-weekdays AM southbound, PM northbound, 6-all other times", "line": "6-6 Express", "url": "http:\/\/web.mta.info\/nyct\/service\/", "name": "Castle Hill Ave" }, "geometry": { "type": "Point", "coordinates": [ -73.851221999614708, 40.834254998254607 ] } },
{ "type": "Feature", "properties": { "cartodb_id": 29, "notes": "4,6-all times, 5-all times exc nights, 6 Express-weekdays AM southbound, PM northbound", "line": "4-5-6-6 Express", "url": "http:\/\/web.mta.info\/nyct\/service\/", "name": "Brooklyn Bridge - City Hall" }, "geometry": { "type": "Point", "coordinates": [ -74.004131000588501, 40.713064999433122 ] } },
{ "type": "Feature", "properties": { "cartodb_id": 30, "notes": "6 Express-weekdays AM southbound, PM northbound, 6-all other times", "line": "6-6 Express", "url": "http:\/\/web.mta.info\/nyct\/service\/", "name": "Zerega Ave" }, "geometry": { "type": "Point", "coordinates": [ -73.847035998754365, 40.836488000608135 ] } },
{ "type": "Feature", "properties": { "cartodb_id": 23, "notes": "7-all times, 7 Express-rush hours AM westbound, PM eastbound", "line": "7-7 Express", "url": "http:\/\/web.mta.info\/nyct\/service\/", "name": "Mets - Willets Point" }, "geometry": { "type": "Point", "coordinates": [ -73.845624998417904, 40.754621998812581 ] } },
{ "type": "Feature", "properties": { "cartodb_id": 24, "notes": "7-all times, 7 Express-rush hours AM westbound, PM eastbound", "line": "7-7 Express", "url": "http:\/\/web.mta.info\/nyct\/service\/", "name": "Junction Blvd" }, "geometry": { "type": "Point", "coordinates": [ -73.869527001035138, 40.749144999488344 ] } },
{ "type": "Feature", "properties": { "cartodb_id": 25, "notes": "7-all times, 7 Express-rush hours AM westbound, PM eastbound", "line": "7-7 Express", "url": "http:\/\/web.mta.info\/nyct\/service\/", "name": "Flushing - Main St" }, "geometry": { "type": "Point", "coordinates": [ -73.830030002625065, 40.759599999150119 ] } },
{ "type": "Feature", "properties": { "cartodb_id": 32, "notes": "4 nights, 6-all times, 6 Express-weekdays AM southbound, PM northbound", "line": "4-6-6 Express", "url": "http:\/\/web.mta.info\/nyct\/service\/", "name": "33rd St" }, "geometry": { "type": "Point", "coordinates": [ -73.982076001489446, 40.746080999091426 ] } },
{ "type": "Feature", "properties": { "cartodb_id": 33, "notes": "4 nights, 6-all times, 6 Express-weekdays AM southbound, PM northbound", "line": "4-6-6 Express", "url": "http:\/\/web.mta.info\/nyct\/service\/", "name": "96th St" }, "geometry": { "type": "Point", "coordinates": [ -73.951070001542504, 40.78567199998605 ] } },
{ "type": "Feature", "properties": { "cartodb_id": 34, "notes": "4 nights, 6-all times, 6 Express-weekdays AM southbound, PM northbound", "line": "4-6-6 Express", "url": "http:\/\/web.mta.info\/nyct\/service\/", "name": "77th St" }, "geometry": { "type": "Point", "coordinates": [ -73.959873998860459, 40.773620000746135 ] } },
{ "type": "Feature", "properties": { "cartodb_id": 35, "notes": "Z-rush hours AM westbound, PM eastbound, J-all other times", "line": "J-Z", "url": "http:\/\/web.mta.info\/nyct\/service\/", "name": "Chauncey St" }, "geometry": { "type": "Point", "coordinates": [ -73.910383570333764, 40.682851300878006 ] } },
{ "type": "Feature", "properties": { "cartodb_id": 36, "notes": "D,N-nights, R-all other times", "line": "D-N-R", "url": "http:\/\/web.mta.info\/nyct\/service\/", "name": "Union St" }, "geometry": { "type": "Point", "coordinates": [ -73.983109999096683, 40.677315667350953 ] } },
{ "type": "Feature", "properties": { "cartodb_id": 37, "notes": "E-nights, R-all other times, M-weekdays and evenings", "line": "E-M-R", "url": "http:\/\/web.mta.info\/nyct\/service\/", "name": "Elmhurst Ave" }, "geometry": { "type": "Point", "coordinates": [ -73.88203474658637, 40.74237007972166 ] } },
{ "type": "Feature", "properties": { "cartodb_id": 38, "notes": "A-nights, C-all other times", "line": "A-C", "url": "http:\/\/web.mta.info\/nyct\/service\/", "name": "Ralph Ave" }, "geometry": { "type": "Point", "coordinates": [ -73.920785999333049, 40.678822000873346 ] } },
{ "type": "Feature", "properties": { "cartodb_id": 39, "notes": "2-all times, 5-rush hours AM southbound, PM northbound", "line": "2-5", "url": "http:\/\/web.mta.info\/nyct\/service\/", "name": "Pelham Pkwy" }, "geometry": { "type": "Point", "coordinates": [ -73.867480678500385, 40.857192409160604 ] } },
{ "type": "Feature", "properties": { "cartodb_id": 40, "notes": "2-all times, 5-rush hours AM southbound, PM northbound", "line": "2-5", "url": "http:\/\/web.mta.info\/nyct\/service\/", "name": "Gun Hill Rd" }, "geometry": { "type": "Point", "coordinates": [ -73.866134105387019, 40.877839385172003 ] } },
{ "type": "Feature", "properties": { "cartodb_id": 41, "notes": "2-all times, 5-rush hours AM southbound, PM northbound", "line": "2-5", "url": "http:\/\/web.mta.info\/nyct\/service\/", "name": "Nereid Ave (238 St)" }, "geometry": { "type": "Point", "coordinates": [ -73.854315310762189, 40.898286515575265 ] } },
{ "type": "Feature", "properties": { "cartodb_id": 42, "notes": "2,4-all times, 3-all times exc nights, 5-weekdays", "line": "2-3-4-5", "url": "http:\/\/web.mta.info\/nyct\/service\/", "name": "Franklin Ave" }, "geometry": { "type": "Point", "coordinates": [ -73.958099736776873, 40.670765153448919 ] } },
{ "type": "Feature", "properties": { "cartodb_id": 43, "notes": "2-all times, 5-all times exc nights, skips rush hours AM southbound, PM northbound", "line": "2-5", "url": "http:\/\/web.mta.info\/nyct\/service\/", "name": "Simpson St" }, "geometry": { "type": "Point", "coordinates": [ -73.893066395079032, 40.823976841237389 ] } },
{ "type": "Feature", "properties": { "cartodb_id": 44, "notes": "2-all times, 5-rush hours AM southbound, PM northbound", "line": "2-5", "url": "http:\/\/web.mta.info\/nyct\/service\/", "name": "Bronx Park East" }, "geometry": { "type": "Point", "coordinates": [ -73.868356091780967, 40.848768666338913 ] } },
{ "type": "Feature", "properties": { "cartodb_id": 45, "notes": "2-all times, 5-weekdays", "line": "2-5", "url": "http:\/\/web.mta.info\/nyct\/service\/", "name": "Winthrop St" }, "geometry": { "type": "Point", "coordinates": [ -73.950079345909913, 40.656659313760755 ] } },
{ "type": "Feature", "properties": { "cartodb_id": 46, "notes": "4-nights, 3-all other times", "line": "3-4", "url": "http:\/\/web.mta.info\/nyct\/service\/", "name": "Van Siclen Ave" }, "geometry": { "type": "Point", "coordinates": [ -73.889404917301022, 40.665517963059614 ] } },
{ "type": "Feature", "properties": { "cartodb_id": 48, "notes": "4-all times", "line": "4", "url": "http:\/\/web.mta.info\/nyct\/service\/", "name": "161st St - Yankee Stadium" }, "geometry": { "type": "Point", "coordinates": [ -73.925691995057335, 40.828230327421664 ] } },
{ "type": "Feature", "properties": { "cartodb_id": 49, "notes": "4,6-all times, 5-all times exc nights, 6 Express-weekdays AM southbound, PM northbound", "line": "4-5-6-6 Express", "url": "http:\/\/web.mta.info\/nyct\/service\/", "name": "Lexington Ave - 59th St" }, "geometry": { "type": "Point", "coordinates": [ -73.96796700047318, 40.762526000304554 ] } },
{ "type": "Feature", "properties": { "cartodb_id": 50, "notes": "6-all times", "line": "6", "url": "http:\/\/web.mta.info\/nyct\/service\/", "name": "E 149th St" }, "geometry": { "type": "Point", "coordinates": [ -73.904097998759454, 40.812117998272001 ] } },
{ "type": "Feature", "properties": { "cartodb_id": 51, "notes": "6-all times", "line": "6", "url": "http:\/\/web.mta.info\/nyct\/service\/", "name": "Morrison Av - Soundview" }, "geometry": { "type": "Point", "coordinates": [ -73.874515999294857, 40.829521001567471 ] } },
{ "type": "Feature", "properties": { "cartodb_id": 52, "notes": "6-all times", "line": "6", "url": "http:\/\/web.mta.info\/nyct\/service\/", "name": "Whitlock Ave" }, "geometry": { "type": "Point", "coordinates": [ -73.886282998532479, 40.826525000559023 ] } },
{ "type": "Feature", "properties": { "cartodb_id": 53, "notes": "6-all times", "line": "6", "url": "http:\/\/web.mta.info\/nyct\/service\/", "name": "St Lawrence Ave" }, "geometry": { "type": "Point", "coordinates": [ -73.8676179992367, 40.831509000523269 ] } },
{ "type": "Feature", "properties": { "cartodb_id": 54, "notes": "7-all times, 7 Express-rush hours AM westbound, PM eastbound", "line": "7-7 Express", "url": "http:\/\/web.mta.info\/nyct\/service\/", "name": "Woodside - 61st St" }, "geometry": { "type": "Point", "coordinates": [ -73.902984001730033, 40.745630001138409 ] } },
{ "type": "Feature", "properties": { "cartodb_id": 55, "notes": "A-all times", "line": "A", "url": "http:\/\/web.mta.info\/nyct\/service\/", "name": "Far Rockaway - Mott Ave" }, "geometry": { "type": "Point", "coordinates": [ -73.755404999247304, 40.603995001687515 ] } },
{ "type": "Feature", "properties": { "cartodb_id": 56, "notes": "A-nights, B-weekdays and evenings, C-all times exc nights", "line": "A-B-C", "url": "http:\/\/web.mta.info\/nyct\/service\/", "name": "72nd St" }, "geometry": { "type": "Point", "coordinates": [ -73.976336575217985, 40.775519397292562 ] } },
{ "type": "Feature", "properties": { "cartodb_id": 57, "notes": "A-nights, B-weekdays and evenings, C-all times exc nights", "line": "A-B-C", "url": "http:\/\/web.mta.info\/nyct\/service\/", "name": "96th St" }, "geometry": { "type": "Point", "coordinates": [ -73.964602456871646, 40.791618797670132 ] } },
{ "type": "Feature", "properties": { "cartodb_id": 58, "notes": "A-all times, C-all times exc nights", "line": "A-C", "url": "http:\/\/web.mta.info\/nyct\/service\/", "name": "168th St" }, "geometry": { "type": "Point", "coordinates": [ -73.939560999854251, 40.840718999907942 ] } },
{ "type": "Feature", "properties": { "cartodb_id": 59, "notes": "B-rush hours, D-all times", "line": "B-D", "url": "http:\/\/web.mta.info\/nyct\/service\/", "name": "Kingsbridge Rd" }, "geometry": { "type": "Point", "coordinates": [ -73.893509000033092, 40.866977999999449 ] } },
{ "type": "Feature", "properties": { "cartodb_id": 60, "notes": "B,M-weekdays and evenings, D,F-all times", "line": "B-D-F-M", "url": "http:\/\/web.mta.info\/nyct\/service\/", "name": "42nd St - Bryant Pk" }, "geometry": { "type": "Point", "coordinates": [ -73.9845909990471, 40.754184001312531 ] } },
{ "type": "Feature", "properties": { "cartodb_id": 61, "notes": "B-weekdays and evenings, Q,S to Franklin Av-Fulton St-all times", "line": "B-Q-S", "url": "http:\/\/web.mta.info\/nyct\/service\/", "name": "Prospect Park" }, "geometry": { "type": "Point", "coordinates": [ -73.962031304266077, 40.661633455101772 ] } },
{ "type": "Feature", "properties": { "cartodb_id": 62, "notes": "D-all times", "line": "D", "url": "http:\/\/web.mta.info\/nyct\/service\/", "name": "55th St" }, "geometry": { "type": "Point", "coordinates": [ -73.995348825957421, 40.631478760937441 ] } },
{ "type": "Feature", "properties": { "cartodb_id": 63, "notes": "E-all times", "line": "E", "url": "http:\/\/web.mta.info\/nyct\/service\/", "name": "Jamaica - Van Wyck" }, "geometry": { "type": "Point", "coordinates": [ -73.817012871354038, 40.702898552873094 ] } },
{ "type": "Feature", "properties": { "cartodb_id": 64, "notes": "E,F-all times", "line": "E-F", "url": "http:\/\/web.mta.info\/nyct\/service\/", "name": "Kew Gardens - Union Tpke" }, "geometry": { "type": "Point", "coordinates": [ -73.8303702709878, 40.714034819571012 ] } },
{ "type": "Feature", "properties": { "cartodb_id": 65, "notes": "E,J-all times, Z-rush hours AM westbound, PM eastbound", "line": "E-J-Z", "url": "http:\/\/web.mta.info\/nyct\/service\/", "name": "Sutphin Blvd - Archer Av" }, "geometry": { "type": "Point", "coordinates": [ -73.808004719638305, 40.700382424234974 ] } },
{ "type": "Feature", "properties": { "cartodb_id": 66, "notes": "E-all times, M-weekdays and evenings", "line": "E-M", "url": "http:\/\/web.mta.info\/nyct\/service\/", "name": "Court Sq - 23rd St" }, "geometry": { "type": "Point", "coordinates": [ -73.94605470266329, 40.74776812141431 ] } },
{ "type": "Feature", "properties": { "cartodb_id": 67, "notes": "E-nights, R-all other times, M-weekdays and evenings", "line": "E-M-R", "url": "http:\/\/web.mta.info\/nyct\/service\/", "name": "67th Ave" }, "geometry": { "type": "Point", "coordinates": [ -73.852860484349037, 40.726505475812985 ] } },
{ "type": "Feature", "properties": { "cartodb_id": 68, "notes": "E-nights, R-all other times, M-weekdays and evenings", "line": "E-M-R", "url": "http:\/\/web.mta.info\/nyct\/service\/", "name": "Grand Ave - Newtown" }, "geometry": { "type": "Point", "coordinates": [ -73.877220856691778, 40.73681341819713 ] } },
{ "type": "Feature", "properties": { "cartodb_id": 69, "notes": "F-all times", "line": "F", "url": "http:\/\/web.mta.info\/nyct\/service\/", "name": "Ditmas Ave" }, "geometry": { "type": "Point", "coordinates": [ -73.978171999651579, 40.636118666662895 ] } },
{ "type": "Feature", "properties": { "cartodb_id": 70, "notes": "G-all times", "line": "G", "url": "http:\/\/web.mta.info\/nyct\/service\/", "name": "Classon Ave" }, "geometry": { "type": "Point", "coordinates": [ -73.95999000137212, 40.688889000264552 ] } },
{ "type": "Feature", "properties": { "cartodb_id": 71, "notes": "G-all times", "line": "G", "url": "http:\/\/web.mta.info\/nyct\/service\/", "name": "Broadway" }, "geometry": { "type": "Point", "coordinates": [ -73.950312256066184, 40.706126576274123 ] } },
{ "type": "Feature", "properties": { "cartodb_id": 72, "notes": "L-all times", "line": "L", "url": "http:\/\/web.mta.info\/nyct\/service\/", "name": "Lorimer St" }, "geometry": { "type": "Point", "coordinates": [ -73.95024799996969, 40.714072000647157 ] } },
{ "type": "Feature", "properties": { "cartodb_id": 73, "notes": "L-all times", "line": "L", "url": "http:\/\/web.mta.info\/nyct\/service\/", "name": "Sutter Ave" }, "geometry": { "type": "Point", "coordinates": [ -73.901916000420783, 40.669145000613973 ] } },
{ "type": "Feature", "properties": { "cartodb_id": 74, "notes": "L-all times", "line": "L", "url": "http:\/\/web.mta.info\/nyct\/service\/", "name": "Wilson Ave" }, "geometry": { "type": "Point", "coordinates": [ -73.903958604918628, 40.688866542460218 ] } },
{ "type": "Feature", "properties": { "cartodb_id": 75, "notes": "J-all times", "line": "J", "url": "http:\/\/web.mta.info\/nyct\/service\/", "name": "Halsey St" }, "geometry": { "type": "Point", "coordinates": [ -73.916638884219381, 40.686415270704352 ] } },
{ "type": "Feature", "properties": { "cartodb_id": 76, "notes": "J-all times, skips weekdays AM westbound, PM eastbound, M-all times exc nights", "line": "J-M", "url": "http:\/\/web.mta.info\/nyct\/service\/", "name": "Lorimer St" }, "geometry": { "type": "Point", "coordinates": [ -73.947354998842016, 40.703844000042082 ] } },
{ "type": "Feature", "properties": { "cartodb_id": 77, "notes": "N-all times", "line": "N", "url": "http:\/\/web.mta.info\/nyct\/service\/", "name": "8th Ave" }, "geometry": { "type": "Point", "coordinates": [ -74.011515997721531, 40.634970999647138 ] } },
{ "type": "Feature", "properties": { "cartodb_id": 78, "notes": "N-all times, Q-weekdays and evenings", "line": "N-Q", "url": "http:\/\/web.mta.info\/nyct\/service\/", "name": "36th Ave" }, "geometry": { "type": "Point", "coordinates": [ -73.929861999117989, 40.756442000510397 ] } },
{ "type": "Feature", "properties": { "cartodb_id": 79, "notes": "N-all times, Q-weekdays and evenings", "line": "N-Q", "url": "http:\/\/web.mta.info\/nyct\/service\/", "name": "Broadway" }, "geometry": { "type": "Point", "coordinates": [ -73.925822999199028, 40.761431998800532 ] } },
{ "type": "Feature", "properties": { "cartodb_id": 80, "notes": "N,Q-all times, R-all times exc nights", "line": "N-Q-R", "url": "http:\/\/web.mta.info\/nyct\/service\/", "name": "Times Sq - 42nd St" }, "geometry": { "type": "Point", "coordinates": [ -73.98676800153973, 40.754611998515408 ] } },
{ "type": "Feature", "properties": { "cartodb_id": 81, "notes": "S to Times Sq-all times exc nights, closed nights-use 7", "line": "S", "url": "http:\/\/web.mta.info\/nyct\/service\/", "name": "Grand Central - 42nd St" }, "geometry": { "type": "Point", "coordinates": [ -73.979188999890994, 40.75276866674217 ] } },
{ "type": "Feature", "properties": { "cartodb_id": 82, "notes": "S Franklin Av-Fulton St to Prospect Park-all times", "line": "S", "url": "http:\/\/web.mta.info\/nyct\/service\/", "name": "Park Pl" }, "geometry": { "type": "Point", "coordinates": [ -73.957624000746335, 40.674771666852592 ] } },
{ "type": "Feature", "properties": { "cartodb_id": 190, "notes": "7-all times", "line": "7", "url": "http:\/\/web.mta.info\/nyct\/service\/", "name": "111th St" }, "geometry": { "type": "Point", "coordinates": [ -73.85533399834884, 40.751729999417101 ] } },
{ "type": "Feature", "properties": { "cartodb_id": 83, "notes": "S Euclid Av to Ozone Park-Lefferts Blvd-nights, A-all other times", "line": "A-S", "url": "http:\/\/web.mta.info\/nyct\/service\/", "name": "111th St" }, "geometry": { "type": "Point", "coordinates": [ -73.832162998453867, 40.684331000012371 ] } },
{ "type": "Feature", "properties": { "cartodb_id": 84, "notes": "B,M-weekdays and evenings, D,F-all times", "line": "B-D-F-M", "url": "http:\/\/web.mta.info\/nyct\/service\/", "name": "W 4th St - Washington Sq (Lower)" }, "geometry": { "type": "Point", "coordinates": [ -74.000308147559721, 40.732254493367861 ] } },
{ "type": "Feature", "properties": { "cartodb_id": 85, "notes": "4 nights, 6-all times, 6 Express-weekdays AM southbound, PM northbound", "line": "4-6-6 Express", "url": "http:\/\/web.mta.info\/nyct\/service\/", "name": "51st St" }, "geometry": { "type": "Point", "coordinates": [ -73.971920000699811, 40.757106999893146 ] } },
{ "type": "Feature", "properties": { "cartodb_id": 86, "notes": "1-all times, 2-nights", "line": "1-2", "url": "http:\/\/web.mta.info\/nyct\/service\/", "name": "86th St" }, "geometry": { "type": "Point", "coordinates": [ -73.976217998593228, 40.788644000738913 ] } },
{ "type": "Feature", "properties": { "cartodb_id": 87, "notes": "2-all times, 5-rush hours AM southbound, PM northbound", "line": "2-5", "url": "http:\/\/web.mta.info\/nyct\/service\/", "name": "233rd St" }, "geometry": { "type": "Point", "coordinates": [ -73.857362395215418, 40.893143241383761 ] } },
{ "type": "Feature", "properties": { "cartodb_id": 88, "notes": "1-all times, 2-nights", "line": "1-2", "url": "http:\/\/web.mta.info\/nyct\/service\/", "name": "66th St - Lincoln Ctr" }, "geometry": { "type": "Point", "coordinates": [ -73.98220899995782, 40.773440000520367 ] } },
{ "type": "Feature", "properties": { "cartodb_id": 89, "notes": "6-all times, 6 Express-weekdays AM southbound, PM northbound", "line": "6-6 Express", "url": "http:\/\/web.mta.info\/nyct\/service\/", "name": "Hunts Point Ave" }, "geometry": { "type": "Point", "coordinates": [ -73.890549000173408, 40.820947998523074 ] } },
{ "type": "Feature", "properties": { "cartodb_id": 90, "notes": "1-all times, 2-nights", "line": "1-2", "url": "http:\/\/web.mta.info\/nyct\/service\/", "name": "Canal St" }, "geometry": { "type": "Point", "coordinates": [ -74.006277000174791, 40.722853997787801 ] } },
{ "type": "Feature", "properties": { "cartodb_id": 91, "notes": "6 Express-weekdays AM southbound, PM northbound, 6-all other times", "line": "6-6 Express", "url": "http:\/\/web.mta.info\/nyct\/service\/", "name": "Middletown Rd" }, "geometry": { "type": "Point", "coordinates": [ -73.836321997559423, 40.843863001283786 ] } },
{ "type": "Feature", "properties": { "cartodb_id": 187, "notes": "F-all times", "line": "F", "url": "http:\/\/web.mta.info\/nyct\/service\/", "name": "Parsons Blvd" }, "geometry": { "type": "Point", "coordinates": [ -73.80328900021884, 40.707571999615666 ] } },
{ "type": "Feature", "properties": { "cartodb_id": 92, "notes": "4 nights, 6-all times, 6 Express-weekdays AM southbound, PM northbound", "line": "4-6-6 Express", "url": "http:\/\/web.mta.info\/nyct\/service\/", "name": "23rd St" }, "geometry": { "type": "Point", "coordinates": [ -73.986599002078862, 40.739864000474576 ] } },
{ "type": "Feature", "properties": { "cartodb_id": 93, "notes": "7-all times, 7 Express-rush hours AM westbound, PM eastbound", "line": "7-7 Express", "url": "http:\/\/web.mta.info\/nyct\/service\/", "name": "Court Sq" }, "geometry": { "type": "Point", "coordinates": [ -73.945264000396762, 40.747022998896441 ] } },
{ "type": "Feature", "properties": { "cartodb_id": 94, "notes": "1-all times, 2-nights", "line": "1-2", "url": "http:\/\/web.mta.info\/nyct\/service\/", "name": "59th St - Columbus Circle" }, "geometry": { "type": "Point", "coordinates": [ -73.981929002327121, 40.768247000636862 ] } },
{ "type": "Feature", "properties": { "cartodb_id": 95, "notes": "7-all times, 7 Express-rush hours AM westbound, PM eastbound", "line": "7-7 Express", "url": "http:\/\/web.mta.info\/nyct\/service\/", "name": "Hunters Point Ave" }, "geometry": { "type": "Point", "coordinates": [ -73.948916000939079, 40.742215999863156 ] } },
{ "type": "Feature", "properties": { "cartodb_id": 96, "notes": "1-all times, 2-nights", "line": "1-2", "url": "http:\/\/web.mta.info\/nyct\/service\/", "name": "23rd St" }, "geometry": { "type": "Point", "coordinates": [ -73.995657001648652, 40.744080999897506 ] } },
{ "type": "Feature", "properties": { "cartodb_id": 97, "notes": "1-all times, 2-nights", "line": "1-2", "url": "http:\/\/web.mta.info\/nyct\/service\/", "name": "Houston St" }, "geometry": { "type": "Point", "coordinates": [ -74.005367001805794, 40.728251000730182 ] } },
{ "type": "Feature", "properties": { "cartodb_id": 98, "notes": "S Euclid Av to Ozone Park-Lefferts Blvd-nights, A-all other times", "line": "A-S", "url": "http:\/\/web.mta.info\/nyct\/service\/", "name": "104th St" }, "geometry": { "type": "Point", "coordinates": [ -73.837683000609957, 40.681711001091195 ] } },
{ "type": "Feature", "properties": { "cartodb_id": 99, "notes": "A,S to Rockaway Park-all times", "line": "A-S", "url": "http:\/\/web.mta.info\/nyct\/service\/", "name": "Broad Channel" }, "geometry": { "type": "Point", "coordinates": [ -73.815832687829612, 40.608402180696807 ] } },
{ "type": "Feature", "properties": { "cartodb_id": 101, "notes": "7-all times, 7 Express-rush hours AM westbound, PM eastbound", "line": "7-7 Express", "url": "http:\/\/web.mta.info\/nyct\/service\/", "name": "Vernon Blvd - Jackson Ave" }, "geometry": { "type": "Point", "coordinates": [ -73.953580998752471, 40.742625999697459 ] } },
{ "type": "Feature", "properties": { "cartodb_id": 102, "notes": "4 nights, 6-all times, 6 Express-weekdays AM southbound, PM northbound", "line": "4-6-6 Express", "url": "http:\/\/web.mta.info\/nyct\/service\/", "name": "68th St - Hunter College" }, "geometry": { "type": "Point", "coordinates": [ -73.963870001580403, 40.768141000496783 ] } },
{ "type": "Feature", "properties": { "cartodb_id": 103, "notes": "7,N-all times, 7 Express-rush hours AM westbound, PM eastbound, Q-weekdays and evenings", "line": "7-7 Express-N-Q", "url": "http:\/\/web.mta.info\/nyct\/service\/", "name": "Queensboro Plz" }, "geometry": { "type": "Point", "coordinates": [ -73.940163535190891, 40.750635651014797 ] } },
{ "type": "Feature", "properties": { "cartodb_id": 104, "notes": "A-all times, S Euclid Av to Ozone Park-Lefferts Blvd-nights", "line": "A-S", "url": "http:\/\/web.mta.info\/nyct\/service\/", "name": "Rockaway Blvd" }, "geometry": { "type": "Point", "coordinates": [ -73.843852997957285, 40.680428999588408 ] } },
{ "type": "Feature", "properties": { "cartodb_id": 105, "notes": "4,6-all times, 5-all times exc nights, 6 Express-weekdays AM southbound, PM northbound", "line": "4-5-6-6 Express", "url": "http:\/\/web.mta.info\/nyct\/service\/", "name": "Union Sq - 14th St" }, "geometry": { "type": "Point", "coordinates": [ -73.989950998818784, 40.734673000996118 ] } },
{ "type": "Feature", "properties": { "cartodb_id": 106, "notes": "G-all times", "line": "G", "url": "http:\/\/web.mta.info\/nyct\/service\/", "name": "Bedford - Nostrand Aves" }, "geometry": { "type": "Point", "coordinates": [ -73.953522000640206, 40.689627001584434 ] } },
{ "type": "Feature", "properties": { "cartodb_id": 107, "notes": "F,G-all times", "line": "F-G", "url": "http:\/\/web.mta.info\/nyct\/service\/", "name": "15th St - Prospect Park" }, "geometry": { "type": "Point", "coordinates": [ -73.979735805928712, 40.660035688100187 ] } },
{ "type": "Feature", "properties": { "cartodb_id": 108, "notes": "F,G-all times", "line": "F-G", "url": "http:\/\/web.mta.info\/nyct\/service\/", "name": "7th Ave" }, "geometry": { "type": "Point", "coordinates": [ -73.980251179009443, 40.666244690019816 ] } },
{ "type": "Feature", "properties": { "cartodb_id": 109, "notes": "F,G-all times", "line": "F-G", "url": "http:\/\/web.mta.info\/nyct\/service\/", "name": "Ft Hamilton Pkwy" }, "geometry": { "type": "Point", "coordinates": [ -73.975775999174729, 40.650781668034163 ] } },
{ "type": "Feature", "properties": { "cartodb_id": 110, "notes": "F,G-all times", "line": "F-G", "url": "http:\/\/web.mta.info\/nyct\/service\/", "name": "Church Ave" }, "geometry": { "type": "Point", "coordinates": [ -73.979721162290829, 40.644272000129952 ] } },
{ "type": "Feature", "properties": { "cartodb_id": 111, "notes": "Q-all times", "line": "Q", "url": "http:\/\/web.mta.info\/nyct\/service\/", "name": "Beverly Rd" }, "geometry": { "type": "Point", "coordinates": [ -73.964357796231241, 40.643904598604152 ] } },
{ "type": "Feature", "properties": { "cartodb_id": 112, "notes": "B-weekdays and evenings, Q-all times", "line": "B-Q", "url": "http:\/\/web.mta.info\/nyct\/service\/", "name": "Church Ave" }, "geometry": { "type": "Point", "coordinates": [ -73.962882461921126, 40.650493246464826 ] } },
{ "type": "Feature", "properties": { "cartodb_id": 113, "notes": "B-weekdays and evenings, Q-all times", "line": "B-Q", "url": "http:\/\/web.mta.info\/nyct\/service\/", "name": "Newkirk Ave" }, "geometry": { "type": "Point", "coordinates": [ -73.96269486837258, 40.635141937337856 ] } },
{ "type": "Feature", "properties": { "cartodb_id": 114, "notes": "Q-all times", "line": "Q", "url": "http:\/\/web.mta.info\/nyct\/service\/", "name": "Parkside Ave" }, "geometry": { "type": "Point", "coordinates": [ -73.96145343987645, 40.655073041637145 ] } },
{ "type": "Feature", "properties": { "cartodb_id": 115, "notes": "4-nights, 3-all other times, 2-all times", "line": "2-3-4", "url": "http:\/\/web.mta.info\/nyct\/service\/", "name": "Grand Army Plaza" }, "geometry": { "type": "Point", "coordinates": [ -73.970956331922793, 40.675294695103183 ] } },
{ "type": "Feature", "properties": { "cartodb_id": 116, "notes": "2,4-all times, 3-all times exc nights, 5-weekdays", "line": "2-3-4-5", "url": "http:\/\/web.mta.info\/nyct\/service\/", "name": "Atlantic Av - Barclay's Center" }, "geometry": { "type": "Point", "coordinates": [ -73.977549935393824, 40.684420165267596 ] } },
{ "type": "Feature", "properties": { "cartodb_id": 117, "notes": "A-nights, C-all other times", "line": "A-C", "url": "http:\/\/web.mta.info\/nyct\/service\/", "name": "Rockaway Ave" }, "geometry": { "type": "Point", "coordinates": [ -73.911945997266159, 40.678339999883498 ] } },
{ "type": "Feature", "properties": { "cartodb_id": 118, "notes": "G-all times", "line": "G", "url": "http:\/\/web.mta.info\/nyct\/service\/", "name": "Fulton St" }, "geometry": { "type": "Point", "coordinates": [ -73.975374998331475, 40.687118999507696 ] } },
{ "type": "Feature", "properties": { "cartodb_id": 119, "notes": "G-all times", "line": "G", "url": "http:\/\/web.mta.info\/nyct\/service\/", "name": "Clinton - Washington Aves" }, "geometry": { "type": "Point", "coordinates": [ -73.966795998669454, 40.688094001060513 ] } },
{ "type": "Feature", "properties": { "cartodb_id": 120, "notes": "B-weekdays and evenings, Q-all times", "line": "B-Q", "url": "http:\/\/web.mta.info\/nyct\/service\/", "name": "7th Ave" }, "geometry": { "type": "Point", "coordinates": [ -73.972852791910213, 40.677102179832936 ] } },
{ "type": "Feature", "properties": { "cartodb_id": 121, "notes": "B-weekdays and evenings, Q-all times", "line": "B-Q", "url": "http:\/\/web.mta.info\/nyct\/service\/", "name": "Atlantic Av - Barclay's Center" }, "geometry": { "type": "Point", "coordinates": [ -73.976783439631632, 40.684488323453664 ] } },
{ "type": "Feature", "properties": { "cartodb_id": 122, "notes": "D,N-all times, R-all times exc nights", "line": "D-N-R", "url": "http:\/\/web.mta.info\/nyct\/service\/", "name": "Atlantic Av - Barclay's Center" }, "geometry": { "type": "Point", "coordinates": [ -73.978809999567673, 40.683665667279413 ] } },
{ "type": "Feature", "properties": { "cartodb_id": 123, "notes": "4-all times, 5-weekdays", "line": "4-5", "url": "http:\/\/web.mta.info\/nyct\/service\/", "name": "Borough Hall" }, "geometry": { "type": "Point", "coordinates": [ -73.990151000905371, 40.692403999991015 ] } },
{ "type": "Feature", "properties": { "cartodb_id": 124, "notes": "A-to Manhattan only, racing days only", "line": "A", "url": "http:\/\/web.mta.info\/nyct\/service\/", "name": "Aqueduct Racetrack" }, "geometry": { "type": "Point", "coordinates": [ -73.835918999651597, 40.672096999172837 ] } },
{ "type": "Feature", "properties": { "cartodb_id": 125, "notes": "5-all times", "line": "5", "url": "http:\/\/web.mta.info\/nyct\/service\/", "name": "Morris Park" }, "geometry": { "type": "Point", "coordinates": [ -73.860495001172538, 40.854363999664223 ] } },
{ "type": "Feature", "properties": { "cartodb_id": 126, "notes": "5-all times", "line": "5", "url": "http:\/\/web.mta.info\/nyct\/service\/", "name": "Pelham Pkwy" }, "geometry": { "type": "Point", "coordinates": [ -73.855359000435627, 40.858984999820095 ] } },
{ "type": "Feature", "properties": { "cartodb_id": 128, "notes": "2,4-all times, 3-all times exc nights, 5-weekdays", "line": "2-3-4-5", "url": "http:\/\/web.mta.info\/nyct\/service\/", "name": "Nevins St" }, "geometry": { "type": "Point", "coordinates": [ -73.980406798745776, 40.688310580190198 ] } },
{ "type": "Feature", "properties": { "cartodb_id": 129, "notes": "4-nights, 3-all other times, 2-all times", "line": "2-3-4", "url": "http:\/\/web.mta.info\/nyct\/service\/", "name": "Eastern Pkwy - Bklyn Museum" }, "geometry": { "type": "Point", "coordinates": [ -73.96422203748422, 40.672032235459227 ] } },
{ "type": "Feature", "properties": { "cartodb_id": 130, "notes": "2-all times, 5-weekdays", "line": "2-5", "url": "http:\/\/web.mta.info\/nyct\/service\/", "name": "Beverly Rd" }, "geometry": { "type": "Point", "coordinates": [ -73.948847983817004, 40.64512351894372 ] } },
{ "type": "Feature", "properties": { "cartodb_id": 131, "notes": "2-all times, 5-weekdays", "line": "2-5", "url": "http:\/\/web.mta.info\/nyct\/service\/", "name": "Church Ave" }, "geometry": { "type": "Point", "coordinates": [ -73.949455140353322, 40.650860687802194 ] } },
{ "type": "Feature", "properties": { "cartodb_id": 132, "notes": "2-all times, 5-weekdays", "line": "2-5", "url": "http:\/\/web.mta.info\/nyct\/service\/", "name": "Newkirk Ave" }, "geometry": { "type": "Point", "coordinates": [ -73.948299908224058, 40.639991242753069 ] } },
{ "type": "Feature", "properties": { "cartodb_id": 133, "notes": "2-all times, 5-weekdays", "line": "2-5", "url": "http:\/\/web.mta.info\/nyct\/service\/", "name": "Brooklyn College - Flatbush Ave" }, "geometry": { "type": "Point", "coordinates": [ -73.947541207344045, 40.632842407007416 ] } },
{ "type": "Feature", "properties": { "cartodb_id": 134, "notes": "2-all times, 5-weekdays", "line": "2-5", "url": "http:\/\/web.mta.info\/nyct\/service\/", "name": "Sterling St" }, "geometry": { "type": "Point", "coordinates": [ -73.950728911249357, 40.662772993428298 ] } },
{ "type": "Feature", "properties": { "cartodb_id": 135, "notes": "3-all times exc nights, 4-all times", "line": "3-4", "url": "http:\/\/web.mta.info\/nyct\/service\/", "name": "Crown Hts - Utica Ave" }, "geometry": { "type": "Point", "coordinates": [ -73.9329325608185, 40.668978311078078 ] } },
{ "type": "Feature", "properties": { "cartodb_id": 136, "notes": "4-nights, 3-all other times", "line": "3-4", "url": "http:\/\/web.mta.info\/nyct\/service\/", "name": "Kingston Ave" }, "geometry": { "type": "Point", "coordinates": [ -73.942159783929625, 40.669481448649769 ] } },
{ "type": "Feature", "properties": { "cartodb_id": 137, "notes": "G-all times", "line": "G", "url": "http:\/\/web.mta.info\/nyct\/service\/", "name": "Nassau Ave" }, "geometry": { "type": "Point", "coordinates": [ -73.951183000165187, 40.724479997808238 ] } },
{ "type": "Feature", "properties": { "cartodb_id": 138, "notes": "G-all times", "line": "G", "url": "http:\/\/web.mta.info\/nyct\/service\/", "name": "Greenpoint Ave" }, "geometry": { "type": "Point", "coordinates": [ -73.95442500146234, 40.731266999714634 ] } },
{ "type": "Feature", "properties": { "cartodb_id": 188, "notes": "F-all times", "line": "F", "url": "http:\/\/web.mta.info\/nyct\/service\/", "name": "169th St" }, "geometry": { "type": "Point", "coordinates": [ -73.793474199277199, 40.710517502783986 ] } },
{ "type": "Feature", "properties": { "cartodb_id": 139, "notes": "J-all times, M-all times exc nights, Z-rush hours AM westbound, PM eastbound", "line": "J-M-Z", "url": "http:\/\/web.mta.info\/nyct\/service\/", "name": "Marcy Ave" }, "geometry": { "type": "Point", "coordinates": [ -73.957832000757278, 40.708383000017911 ] } },
{ "type": "Feature", "properties": { "cartodb_id": 140, "notes": "J-all times, skips weekdays AM westbound, PM eastbound, M-all times exc nights", "line": "J-M", "url": "http:\/\/web.mta.info\/nyct\/service\/", "name": "Hewes St" }, "geometry": { "type": "Point", "coordinates": [ -73.953488000384525, 40.706889998053995 ] } },
{ "type": "Feature", "properties": { "cartodb_id": 141, "notes": "4-all times, skips rush hours AM southbound, PM northbound, 5-all times exc nights", "line": "4-5", "url": "http:\/\/web.mta.info\/nyct\/service\/", "name": "138th St - Grand Concourse" }, "geometry": { "type": "Point", "coordinates": [ -73.929848999356096, 40.813223999589034 ] } },
{ "type": "Feature", "properties": { "cartodb_id": 142, "notes": "E-all times, M-weekdays and evenings", "line": "E-M", "url": "http:\/\/web.mta.info\/nyct\/service\/", "name": "5th Ave - 53rd St" }, "geometry": { "type": "Point", "coordinates": [ -73.97524850527337, 40.760086832313235 ] } },
{ "type": "Feature", "properties": { "cartodb_id": 143, "notes": "E-all times, M-weekdays and evenings", "line": "E-M", "url": "http:\/\/web.mta.info\/nyct\/service\/", "name": "Lexington Ave - 53rd St" }, "geometry": { "type": "Point", "coordinates": [ -73.969072374902026, 40.757468307828638 ] } },
{ "type": "Feature", "properties": { "cartodb_id": 144, "notes": "N-all times, Q-nights, R-all times exc nights", "line": "N-R", "url": "http:\/\/web.mta.info\/nyct\/service\/", "name": "28th St" }, "geometry": { "type": "Point", "coordinates": [ -73.988698001287361, 40.745453999799494 ] } },
{ "type": "Feature", "properties": { "cartodb_id": 145, "notes": "N,Q-all times, R-all times exc nights", "line": "N-Q-R", "url": "http:\/\/web.mta.info\/nyct\/service\/", "name": "Herald Sq - 34th St" }, "geometry": { "type": "Point", "coordinates": [ -73.987936833826382, 40.749644560094396 ] } },
{ "type": "Feature", "properties": { "cartodb_id": 146, "notes": "L-all times", "line": "L", "url": "http:\/\/web.mta.info\/nyct\/service\/", "name": "1st Ave" }, "geometry": { "type": "Point", "coordinates": [ -73.981680874891268, 40.730974975800656 ] } },
{ "type": "Feature", "properties": { "cartodb_id": 147, "notes": "S to Grand Central-all times exc nights, closed nights-use 7", "line": "S", "url": "http:\/\/web.mta.info\/nyct\/service\/", "name": "Times Sq - 42nd St" }, "geometry": { "type": "Point", "coordinates": [ -73.986228999532003, 40.755983000570069 ] } },
{ "type": "Feature", "properties": { "cartodb_id": 148, "notes": "G-all times", "line": "G", "url": "http:\/\/web.mta.info\/nyct\/service\/", "name": "Metropolitan Ave" }, "geometry": { "type": "Point", "coordinates": [ -73.951423999452487, 40.712774000734257 ] } },
{ "type": "Feature", "properties": { "cartodb_id": 149, "notes": "L-all times", "line": "L", "url": "http:\/\/web.mta.info\/nyct\/service\/", "name": "Grand St" }, "geometry": { "type": "Point", "coordinates": [ -73.940496998746426, 40.711576000648201 ] } },
{ "type": "Feature", "properties": { "cartodb_id": 150, "notes": "L-all times", "line": "L", "url": "http:\/\/web.mta.info\/nyct\/service\/", "name": "Graham Ave" }, "geometry": { "type": "Point", "coordinates": [ -73.943943998690344, 40.714575998363635 ] } },
{ "type": "Feature", "properties": { "cartodb_id": 151, "notes": "L-all times", "line": "L", "url": "http:\/\/web.mta.info\/nyct\/service\/", "name": "Bedford Ave" }, "geometry": { "type": "Point", "coordinates": [ -73.956664998065236, 40.717173998588962 ] } },
{ "type": "Feature", "properties": { "cartodb_id": 152, "notes": "L-all times", "line": "L", "url": "http:\/\/web.mta.info\/nyct\/service\/", "name": "Montrose Ave" }, "geometry": { "type": "Point", "coordinates": [ -73.939792847135024, 40.707391064384517 ] } },
{ "type": "Feature", "properties": { "cartodb_id": 153, "notes": "G-all times", "line": "G", "url": "http:\/\/web.mta.info\/nyct\/service\/", "name": "Long Island City - Court Sq" }, "geometry": { "type": "Point", "coordinates": [ -73.943815595978336, 40.746305033571439 ] } },
{ "type": "Feature", "properties": { "cartodb_id": 154, "notes": "G-all times", "line": "G", "url": "http:\/\/web.mta.info\/nyct\/service\/", "name": "21st St" }, "geometry": { "type": "Point", "coordinates": [ -73.949599999755151, 40.744128666495371 ] } },
{ "type": "Feature", "properties": { "cartodb_id": 155, "notes": "N-all times, Q-weekdays and evenings", "line": "N-Q", "url": "http:\/\/web.mta.info\/nyct\/service\/", "name": "39th Ave" }, "geometry": { "type": "Point", "coordinates": [ -73.932851376795981, 40.752763061408423 ] } },
{ "type": "Feature", "properties": { "cartodb_id": 156, "notes": "1-all times", "line": "1", "url": "http:\/\/web.mta.info\/nyct\/service\/", "name": "145th St" }, "geometry": { "type": "Point", "coordinates": [ -73.950359998797111, 40.826550999621936 ] } },
{ "type": "Feature", "properties": { "cartodb_id": 157, "notes": "1-all times", "line": "1", "url": "http:\/\/web.mta.info\/nyct\/service\/", "name": "157th St" }, "geometry": { "type": "Point", "coordinates": [ -73.944889999010456, 40.834041000139884 ] } },
{ "type": "Feature", "properties": { "cartodb_id": 158, "notes": "1,2,3-all times", "line": "1-2-3", "url": "http:\/\/web.mta.info\/nyct\/service\/", "name": "96th St" }, "geometry": { "type": "Point", "coordinates": [ -73.972322999156916, 40.793919001214682 ] } },
{ "type": "Feature", "properties": { "cartodb_id": 159, "notes": "1-all times", "line": "1", "url": "http:\/\/web.mta.info\/nyct\/service\/", "name": "103rd St" }, "geometry": { "type": "Point", "coordinates": [ -73.968378999608149, 40.799446000334832 ] } },
{ "type": "Feature", "properties": { "cartodb_id": 160, "notes": "2,3-all times", "line": "2-3", "url": "http:\/\/web.mta.info\/nyct\/service\/", "name": "Central Park North (110th St)" }, "geometry": { "type": "Point", "coordinates": [ -73.951822001769116, 40.799074999773232 ] } },
{ "type": "Feature", "properties": { "cartodb_id": 161, "notes": "A-nights, B-weekdays and evenings, C-all times exc nights", "line": "A-B-C", "url": "http:\/\/web.mta.info\/nyct\/service\/", "name": "103rd St" }, "geometry": { "type": "Point", "coordinates": [ -73.961370082676154, 40.796060739904512 ] } },
{ "type": "Feature", "properties": { "cartodb_id": 162, "notes": "1,2,3-all times", "line": "1-2-3", "url": "http:\/\/web.mta.info\/nyct\/service\/", "name": "72nd St" }, "geometry": { "type": "Point", "coordinates": [ -73.981970001595826, 40.778453000686106 ] } },
{ "type": "Feature", "properties": { "cartodb_id": 163, "notes": "A-nights, B-weekdays and evenings, C-all times exc nights", "line": "A-B-C", "url": "http:\/\/web.mta.info\/nyct\/service\/", "name": "81st St" }, "geometry": { "type": "Point", "coordinates": [ -73.972097949372085, 40.781346084182033 ] } },
{ "type": "Feature", "properties": { "cartodb_id": 164, "notes": "E-evenings, weekends, nights, F-all times", "line": "E-F", "url": "http:\/\/web.mta.info\/nyct\/service\/", "name": "75th Ave" }, "geometry": { "type": "Point", "coordinates": [ -73.836923693871569, 40.718044653487425 ] } },
{ "type": "Feature", "properties": { "cartodb_id": 165, "notes": "A-nights, B-weekdays and evenings, C-all times exc nights", "line": "A-B-C", "url": "http:\/\/web.mta.info\/nyct\/service\/", "name": "86th St" }, "geometry": { "type": "Point", "coordinates": [ -73.968828494296687, 40.785823046785559 ] } },
{ "type": "Feature", "properties": { "cartodb_id": 166, "notes": "1-all times", "line": "1", "url": "http:\/\/web.mta.info\/nyct\/service\/", "name": "Cathedral Pkwy (110th St)" }, "geometry": { "type": "Point", "coordinates": [ -73.966847000545584, 40.803966999614808 ] } },
{ "type": "Feature", "properties": { "cartodb_id": 167, "notes": "1-all times", "line": "1", "url": "http:\/\/web.mta.info\/nyct\/service\/", "name": "116th St - Columbia University" }, "geometry": { "type": "Point", "coordinates": [ -73.964109997577495, 40.807722001230836 ] } },
{ "type": "Feature", "properties": { "cartodb_id": 168, "notes": "2,3-all times", "line": "2-3", "url": "http:\/\/web.mta.info\/nyct\/service\/", "name": "125th St" }, "geometry": { "type": "Point", "coordinates": [ -73.945495000114093, 40.807753999182793 ] } },
{ "type": "Feature", "properties": { "cartodb_id": 169, "notes": "2,3-all times", "line": "2-3", "url": "http:\/\/web.mta.info\/nyct\/service\/", "name": "135th St" }, "geometry": { "type": "Point", "coordinates": [ -73.940770001067065, 40.814229000339068 ] } },
{ "type": "Feature", "properties": { "cartodb_id": 170, "notes": "2,3-all times", "line": "2-3", "url": "http:\/\/web.mta.info\/nyct\/service\/", "name": "116th St" }, "geometry": { "type": "Point", "coordinates": [ -73.949625000969036, 40.802097999132982 ] } },
{ "type": "Feature", "properties": { "cartodb_id": 171, "notes": "B-rush hours, D-all times", "line": "B-D", "url": "http:\/\/web.mta.info\/nyct\/service\/", "name": "Tremont Ave" }, "geometry": { "type": "Point", "coordinates": [ -73.905227001223523, 40.850409999510219 ] } },
{ "type": "Feature", "properties": { "cartodb_id": 172, "notes": "1-all times", "line": "1", "url": "http:\/\/web.mta.info\/nyct\/service\/", "name": "137th St - City College" }, "geometry": { "type": "Point", "coordinates": [ -73.953676000878701, 40.822007999684736 ] } },
{ "type": "Feature", "properties": { "cartodb_id": 173, "notes": "3-all times, exit only northbound", "line": "3", "url": "http:\/\/web.mta.info\/nyct\/service\/", "name": "145th St" }, "geometry": { "type": "Point", "coordinates": [ -73.936244998732974, 40.820420999692779 ] } },
{ "type": "Feature", "properties": { "cartodb_id": 174, "notes": "4-all times", "line": "4", "url": "http:\/\/web.mta.info\/nyct\/service\/", "name": "176th St" }, "geometry": { "type": "Point", "coordinates": [ -73.911793998844686, 40.848480001236894 ] } },
{ "type": "Feature", "properties": { "cartodb_id": 175, "notes": "4-all times", "line": "4", "url": "http:\/\/web.mta.info\/nyct\/service\/", "name": "Burnside Ave" }, "geometry": { "type": "Point", "coordinates": [ -73.907684001599677, 40.8534530015569 ] } },
{ "type": "Feature", "properties": { "cartodb_id": 176, "notes": "B-rush hours, D-all times, skips rush hours AM southbound, PM northbound", "line": "B-D", "url": "http:\/\/web.mta.info\/nyct\/service\/", "name": "170th St" }, "geometry": { "type": "Point", "coordinates": [ -73.913399998469814, 40.839305999641539 ] } },
{ "type": "Feature", "properties": { "cartodb_id": 177, "notes": "1-all times", "line": "1", "url": "http:\/\/web.mta.info\/nyct\/service\/", "name": "168th St" }, "geometry": { "type": "Point", "coordinates": [ -73.94013299907256, 40.840555999148535 ] } },
{ "type": "Feature", "properties": { "cartodb_id": 178, "notes": "1-all times", "line": "1", "url": "http:\/\/web.mta.info\/nyct\/service\/", "name": "181st St" }, "geometry": { "type": "Point", "coordinates": [ -73.9335959996056, 40.849504999740631 ] } },
{ "type": "Feature", "properties": { "cartodb_id": 179, "notes": "1-all times", "line": "1", "url": "http:\/\/web.mta.info\/nyct\/service\/", "name": "191st St" }, "geometry": { "type": "Point", "coordinates": [ -73.929411997420374, 40.855225001758349 ] } },
{ "type": "Feature", "properties": { "cartodb_id": 180, "notes": "A-all times", "line": "A", "url": "http:\/\/web.mta.info\/nyct\/service\/", "name": "175th St" }, "geometry": { "type": "Point", "coordinates": [ -73.93970399761595, 40.847391000724016 ] } },
{ "type": "Feature", "properties": { "cartodb_id": 181, "notes": "A-all times", "line": "A", "url": "http:\/\/web.mta.info\/nyct\/service\/", "name": "Beach 44th St" }, "geometry": { "type": "Point", "coordinates": [ -73.776012999995075, 40.592942999086141 ] } },
{ "type": "Feature", "properties": { "cartodb_id": 182, "notes": "A-all times", "line": "A", "url": "http:\/\/web.mta.info\/nyct\/service\/", "name": "Beach 60th St" }, "geometry": { "type": "Point", "coordinates": [ -73.788521998011774, 40.59237400121232 ] } },
{ "type": "Feature", "properties": { "cartodb_id": 183, "notes": "A-rush hours AM northbound, PM southbound, S Broad Channel to Rockaway Park-all times", "line": "A-S", "url": "http:\/\/web.mta.info\/nyct\/service\/", "name": "Beach 98th St" }, "geometry": { "type": "Point", "coordinates": [ -73.820520589595205, 40.585385691332775 ] } },
{ "type": "Feature", "properties": { "cartodb_id": 184, "notes": "A-rush hours AM northbound, PM southbound, S to Broad Channel-all times", "line": "A-S", "url": "http:\/\/web.mta.info\/nyct\/service\/", "name": "Rockaway Park - Beach 116 St" }, "geometry": { "type": "Point", "coordinates": [ -73.835590087012349, 40.5809558655735 ] } },
{ "type": "Feature", "properties": { "cartodb_id": 185, "notes": "A-all times", "line": "A", "url": "http:\/\/web.mta.info\/nyct\/service\/", "name": "Beach 36th St" }, "geometry": { "type": "Point", "coordinates": [ -73.768174999396862, 40.595398001668748 ] } },
{ "type": "Feature", "properties": { "cartodb_id": 186, "notes": "A-all times", "line": "A", "url": "http:\/\/web.mta.info\/nyct\/service\/", "name": "Beach 25th St" }, "geometry": { "type": "Point", "coordinates": [ -73.761352997620691, 40.600066001058799 ] } },
{ "type": "Feature", "properties": { "cartodb_id": 189, "notes": "7-all times", "line": "7", "url": "http:\/\/web.mta.info\/nyct\/service\/", "name": "103rd St - Corona Plaza" }, "geometry": { "type": "Point", "coordinates": [ -73.862699998304109, 40.749865000555531 ] } },
{ "type": "Feature", "properties": { "cartodb_id": 191, "notes": "E-nights, R-all other times, M-weekdays and evenings", "line": "E-M-R", "url": "http:\/\/web.mta.info\/nyct\/service\/", "name": "63rd Dr - Rego Park" }, "geometry": { "type": "Point", "coordinates": [ -73.861618200972032, 40.729763972422397 ] } },
{ "type": "Feature", "properties": { "cartodb_id": 192, "notes": "A-all times, S Euclid Av to Ozone Park-Lefferts Blvd-nights", "line": "A-S", "url": "http:\/\/web.mta.info\/nyct\/service\/", "name": "Grant Ave" }, "geometry": { "type": "Point", "coordinates": [ -73.86504999877701, 40.677044000544761 ] } },
{ "type": "Feature", "properties": { "cartodb_id": 193, "notes": "1-all times, 2-nights", "line": "1-2", "url": "http:\/\/web.mta.info\/nyct\/service\/", "name": "79th St" }, "geometry": { "type": "Point", "coordinates": [ -73.979917000561329, 40.783933999590303 ] } },
{ "type": "Feature", "properties": { "cartodb_id": 194, "notes": "L-all times", "line": "L", "url": "http:\/\/web.mta.info\/nyct\/service\/", "name": "Atlantic Ave" }, "geometry": { "type": "Point", "coordinates": [ -73.903096999540068, 40.675344666408023 ] } },
{ "type": "Feature", "properties": { "cartodb_id": 195, "notes": "1-all times, 2-nights", "line": "1-2", "url": "http:\/\/web.mta.info\/nyct\/service\/", "name": "Christopher St - Sheridan Sq" }, "geometry": { "type": "Point", "coordinates": [ -74.002905998552336, 40.733422001042221 ] } },
{ "type": "Feature", "properties": { "cartodb_id": 196, "notes": "S to Euclid Av-nights, A-all other times", "line": "A-S", "url": "http:\/\/web.mta.info\/nyct\/service\/", "name": "Ozone Park - Lefferts Blvd" }, "geometry": { "type": "Point", "coordinates": [ -73.825797999066111, 40.685950998783603 ] } },
{ "type": "Feature", "properties": { "cartodb_id": 197, "notes": "7-all times, 7 Express-rush hours AM westbound, PM eastbound", "line": "7-7 Express", "url": "http:\/\/web.mta.info\/nyct\/service\/", "name": "Times Sq - 42nd St" }, "geometry": { "type": "Point", "coordinates": [ -73.98769099825148, 40.75547700198247 ] } },
{ "type": "Feature", "properties": { "cartodb_id": 198, "notes": "F,Q-all times", "line": "F-Q", "url": "http:\/\/web.mta.info\/nyct\/service\/", "name": "W 8th St - NY Aquarium" }, "geometry": { "type": "Point", "coordinates": [ -73.975957874138189, 40.576033818103625 ] } },
{ "type": "Feature", "properties": { "cartodb_id": 199, "notes": "1-all times, 2-nights", "line": "1-2", "url": "http:\/\/web.mta.info\/nyct\/service\/", "name": "28th St" }, "geometry": { "type": "Point", "coordinates": [ -73.993365001343221, 40.747214999182169 ] } },
{ "type": "Feature", "properties": { "cartodb_id": 200, "notes": "4 nights, 6-all times, 6 Express-weekdays AM southbound, PM northbound", "line": "4-6-6 Express", "url": "http:\/\/web.mta.info\/nyct\/service\/", "name": "28th St" }, "geometry": { "type": "Point", "coordinates": [ -73.984264001104052, 40.743069999258999 ] } },
{ "type": "Feature", "properties": { "cartodb_id": 201, "notes": "6 Express-weekdays AM southbound, PM northbound, 6-all other times", "line": "6-6 Express", "url": "http:\/\/web.mta.info\/nyct\/service\/", "name": "Pelham Bay Park" }, "geometry": { "type": "Point", "coordinates": [ -73.828121000592844, 40.852461999516599 ] } },
{ "type": "Feature", "properties": { "cartodb_id": 202, "notes": "6 Express-weekdays AM southbound, PM northbound, 6-all other times", "line": "6-6 Express", "url": "http:\/\/web.mta.info\/nyct\/service\/", "name": "Westchester Sq - E Tremont Ave" }, "geometry": { "type": "Point", "coordinates": [ -73.842951999250104, 40.839892001013887 ] } },
{ "type": "Feature", "properties": { "cartodb_id": 203, "notes": "1-all times, 2-nights", "line": "1-2", "url": "http:\/\/web.mta.info\/nyct\/service\/", "name": "18th St" }, "geometry": { "type": "Point", "coordinates": [ -73.99787100060405, 40.741039999802091 ] } },
{ "type": "Feature", "properties": { "cartodb_id": 204, "notes": "7-all times, 7 Express-rush hours AM westbound, PM eastbound", "line": "7-7 Express", "url": "http:\/\/web.mta.info\/nyct\/service\/", "name": "Grand Central - 42nd St" }, "geometry": { "type": "Point", "coordinates": [ -73.97604100111505, 40.751431000286829 ] } },
{ "type": "Feature", "properties": { "cartodb_id": 205, "notes": "A-all times", "line": "A", "url": "http:\/\/web.mta.info\/nyct\/service\/", "name": "Beach 67th St" }, "geometry": { "type": "Point", "coordinates": [ -73.796923999842079, 40.590927000781335 ] } },
{ "type": "Feature", "properties": { "cartodb_id": 206, "notes": "A,E-all times, C-all times exc nights", "line": "A-C-E", "url": "http:\/\/web.mta.info\/nyct\/service\/", "name": "W 4th St - Washington Sq (Upper)" }, "geometry": { "type": "Point", "coordinates": [ -74.000495002254326, 40.73233799774323 ] } },
{ "type": "Feature", "properties": { "cartodb_id": 207, "notes": "J-all times", "line": "J", "url": "http:\/\/web.mta.info\/nyct\/service\/", "name": "85th St - Forest Pky" }, "geometry": { "type": "Point", "coordinates": [ -73.860087000068731, 40.692426999661031 ] } },
{ "type": "Feature", "properties": { "cartodb_id": 208, "notes": "J-all times, Z-rush hours AM westbound, PM eastbound", "line": "J-Z", "url": "http:\/\/web.mta.info\/nyct\/service\/", "name": "Woodhaven Blvd" }, "geometry": { "type": "Point", "coordinates": [ -73.852051997407926, 40.693703998801041 ] } },
{ "type": "Feature", "properties": { "cartodb_id": 209, "notes": "J-all times", "line": "J", "url": "http:\/\/web.mta.info\/nyct\/service\/", "name": "111th St" }, "geometry": { "type": "Point", "coordinates": [ -73.836793384546951, 40.697114810696462 ] } },
{ "type": "Feature", "properties": { "cartodb_id": 210, "notes": "Z-rush hours AM westbound, PM eastbound, J-all other times", "line": "J-Z", "url": "http:\/\/web.mta.info\/nyct\/service\/", "name": "121st St" }, "geometry": { "type": "Point", "coordinates": [ -73.828349000179543, 40.700481998515301 ] } },
{ "type": "Feature", "properties": { "cartodb_id": 211, "notes": "L-all times", "line": "L", "url": "http:\/\/web.mta.info\/nyct\/service\/", "name": "Halsey St" }, "geometry": { "type": "Point", "coordinates": [ -73.9039340011863, 40.695518001148756 ] } },
{ "type": "Feature", "properties": { "cartodb_id": 212, "notes": "L-all times", "line": "L", "url": "http:\/\/web.mta.info\/nyct\/service\/", "name": "Myrtle - Wyckoff Aves" }, "geometry": { "type": "Point", "coordinates": [ -73.91097571826468, 40.699471062427108 ] } },
{ "type": "Feature", "properties": { "cartodb_id": 213, "notes": "4-nights, 3-all other times", "line": "3-4", "url": "http:\/\/web.mta.info\/nyct\/service\/", "name": "New Lots Ave" }, "geometry": { "type": "Point", "coordinates": [ -73.884110708003277, 40.66631493259689 ] } },
{ "type": "Feature", "properties": { "cartodb_id": 214, "notes": "A-nights, C-all other times", "line": "A-C", "url": "http:\/\/web.mta.info\/nyct\/service\/", "name": "Van Siclen Ave" }, "geometry": { "type": "Point", "coordinates": [ -73.89035800024709, 40.672709999061027 ] } },
{ "type": "Feature", "properties": { "cartodb_id": 215, "notes": "J-all times", "line": "J", "url": "http:\/\/web.mta.info\/nyct\/service\/", "name": "Cleveland St" }, "geometry": { "type": "Point", "coordinates": [ -73.885194002164283, 40.679777998961136 ] } },
{ "type": "Feature", "properties": { "cartodb_id": 216, "notes": "L-all times", "line": "L", "url": "http:\/\/web.mta.info\/nyct\/service\/", "name": "Livonia Ave" }, "geometry": { "type": "Point", "coordinates": [ -73.900562372260552, 40.664057270946415 ] } },
{ "type": "Feature", "properties": { "cartodb_id": 217, "notes": "4-nights, 3-all other times", "line": "3-4", "url": "http:\/\/web.mta.info\/nyct\/service\/", "name": "Junius St" }, "geometry": { "type": "Point", "coordinates": [ -73.902448641835605, 40.663589001817229 ] } },
{ "type": "Feature", "properties": { "cartodb_id": 218, "notes": "4-nights, 3-all other times", "line": "3-4", "url": "http:\/\/web.mta.info\/nyct\/service\/", "name": "Rockaway Ave" }, "geometry": { "type": "Point", "coordinates": [ -73.90895833584446, 40.662617488152229 ] } },
{ "type": "Feature", "properties": { "cartodb_id": 219, "notes": "L-all times", "line": "L", "url": "http:\/\/web.mta.info\/nyct\/service\/", "name": "Canarsie - Rockaway Pkwy" }, "geometry": { "type": "Point", "coordinates": [ -73.901850000172828, 40.646653667395263 ] } },
{ "type": "Feature", "properties": { "cartodb_id": 220, "notes": "L-all times", "line": "L", "url": "http:\/\/web.mta.info\/nyct\/service\/", "name": "E 105th St" }, "geometry": { "type": "Point", "coordinates": [ -73.899547693887229, 40.650468785446982 ] } },
{ "type": "Feature", "properties": { "cartodb_id": 221, "notes": "4-nights, 3-all other times", "line": "3-4", "url": "http:\/\/web.mta.info\/nyct\/service\/", "name": "Saratoga Ave" }, "geometry": { "type": "Point", "coordinates": [ -73.916330250079454, 40.661529789807496 ] } },
{ "type": "Feature", "properties": { "cartodb_id": 222, "notes": "4-nights, 3-all other times", "line": "3-4", "url": "http:\/\/web.mta.info\/nyct\/service\/", "name": "Sutter Ave - Rutland Road" }, "geometry": { "type": "Point", "coordinates": [ -73.922521185359997, 40.664766788774898 ] } },
{ "type": "Feature", "properties": { "cartodb_id": 223, "notes": "L-all times", "line": "L", "url": "http:\/\/web.mta.info\/nyct\/service\/", "name": "New Lots Ave" }, "geometry": { "type": "Point", "coordinates": [ -73.899277960571411, 40.658914773685261 ] } },
{ "type": "Feature", "properties": { "cartodb_id": 224, "notes": "J-all times, Z-rush hours AM westbound, PM eastbound", "line": "J-Z", "url": "http:\/\/web.mta.info\/nyct\/service\/", "name": "Broadway Junction" }, "geometry": { "type": "Point", "coordinates": [ -73.904289997464105, 40.679366001473653 ] } },
{ "type": "Feature", "properties": { "cartodb_id": 225, "notes": "J-all times", "line": "J", "url": "http:\/\/web.mta.info\/nyct\/service\/", "name": "Alabama Ave" }, "geometry": { "type": "Point", "coordinates": [ -73.898526001596494, 40.676998000003735 ] } },
{ "type": "Feature", "properties": { "cartodb_id": 226, "notes": "A-nights, C-all other times", "line": "A-C", "url": "http:\/\/web.mta.info\/nyct\/service\/", "name": "Shepherd Ave" }, "geometry": { "type": "Point", "coordinates": [ -73.880749997472677, 40.674130001455886 ] } },
{ "type": "Feature", "properties": { "cartodb_id": 227, "notes": "J-all times, Z-rush hours AM westbound, PM eastbound", "line": "J-Z", "url": "http:\/\/web.mta.info\/nyct\/service\/", "name": "Crescent St" }, "geometry": { "type": "Point", "coordinates": [ -73.873929252157765, 40.683152657077343 ] } },
{ "type": "Feature", "properties": { "cartodb_id": 228, "notes": "J-all times", "line": "J", "url": "http:\/\/web.mta.info\/nyct\/service\/", "name": "Cypress Hills" }, "geometry": { "type": "Point", "coordinates": [ -73.873321998829937, 40.689616000838733 ] } },
{ "type": "Feature", "properties": { "cartodb_id": 229, "notes": "Z-rush hours AM westbound, PM eastbound, J-all other times", "line": "J-Z", "url": "http:\/\/web.mta.info\/nyct\/service\/", "name": "75th St - Eldert Ln" }, "geometry": { "type": "Point", "coordinates": [ -73.867287999449587, 40.691290001246706 ] } },
{ "type": "Feature", "properties": { "cartodb_id": 230, "notes": "7-all times", "line": "7", "url": "http:\/\/web.mta.info\/nyct\/service\/", "name": "69th St" }, "geometry": { "type": "Point", "coordinates": [ -73.896402999318468, 40.746324999410248 ] } },
{ "type": "Feature", "properties": { "cartodb_id": 231, "notes": "7-all times", "line": "7", "url": "http:\/\/web.mta.info\/nyct\/service\/", "name": "74th St - Broadway" }, "geometry": { "type": "Point", "coordinates": [ -73.891205128991075, 40.746867573829078 ] } },
{ "type": "Feature", "properties": { "cartodb_id": 232, "notes": "E-nights, R-all other times, M-weekdays and evenings", "line": "E-M-R", "url": "http:\/\/web.mta.info\/nyct\/service\/", "name": "Woodhaven Blvd - Queens Mall" }, "geometry": { "type": "Point", "coordinates": [ -73.869432086123467, 40.733097373809706 ] } },
{ "type": "Feature", "properties": { "cartodb_id": 233, "notes": "M-all times", "line": "M", "url": "http:\/\/web.mta.info\/nyct\/service\/", "name": "Myrtle - Wyckoff Aves" }, "geometry": { "type": "Point", "coordinates": [ -73.912178999396005, 40.699454000908354 ] } },
{ "type": "Feature", "properties": { "cartodb_id": 235, "notes": "L-all times", "line": "L", "url": "http:\/\/web.mta.info\/nyct\/service\/", "name": "DeKalb Ave" }, "geometry": { "type": "Point", "coordinates": [ -73.918232002197215, 40.703692999616422 ] } },
{ "type": "Feature", "properties": { "cartodb_id": 236, "notes": "7-all times", "line": "7", "url": "http:\/\/web.mta.info\/nyct\/service\/", "name": "52nd St" }, "geometry": { "type": "Point", "coordinates": [ -73.912548998912527, 40.744149001021547 ] } },
{ "type": "Feature", "properties": { "cartodb_id": 237, "notes": "E-nights, R-all other times, M-weekdays and evenings", "line": "E-M-R", "url": "http:\/\/web.mta.info\/nyct\/service\/", "name": "46th St" }, "geometry": { "type": "Point", "coordinates": [ -73.913521749955365, 40.756316952608088 ] } },
{ "type": "Feature", "properties": { "cartodb_id": 238, "notes": "E-nights, R-all other times, M-weekdays and evenings", "line": "E-M-R", "url": "http:\/\/web.mta.info\/nyct\/service\/", "name": "Northern Blvd" }, "geometry": { "type": "Point", "coordinates": [ -73.906065080523561, 40.752824829236076 ] } },
{ "type": "Feature", "properties": { "cartodb_id": 239, "notes": "7-all times", "line": "7", "url": "http:\/\/web.mta.info\/nyct\/service\/", "name": "46th St" }, "geometry": { "type": "Point", "coordinates": [ -73.918435001039711, 40.743132000603815 ] } },
{ "type": "Feature", "properties": { "cartodb_id": 240, "notes": "7-all times", "line": "7", "url": "http:\/\/web.mta.info\/nyct\/service\/", "name": "82nd St - Jackson Hts" }, "geometry": { "type": "Point", "coordinates": [ -73.883697000718826, 40.747658999559135 ] } },
{ "type": "Feature", "properties": { "cartodb_id": 241, "notes": "7-all times", "line": "7", "url": "http:\/\/web.mta.info\/nyct\/service\/", "name": "90th St - Elmhurst Av" }, "geometry": { "type": "Point", "coordinates": [ -73.876612999869835, 40.748408000609132 ] } },
{ "type": "Feature", "properties": { "cartodb_id": 242, "notes": "A-all times", "line": "A", "url": "http:\/\/web.mta.info\/nyct\/service\/", "name": "Howard Beach - JFK Airport" }, "geometry": { "type": "Point", "coordinates": [ -73.830301000710307, 40.660476000049584 ] } },
{ "type": "Feature", "properties": { "cartodb_id": 243, "notes": "A-all times", "line": "A", "url": "http:\/\/web.mta.info\/nyct\/service\/", "name": "Aqueduct - North Conduit Av" }, "geometry": { "type": "Point", "coordinates": [ -73.834057999487229, 40.66823400169978 ] } },
{ "type": "Feature", "properties": { "cartodb_id": 244, "notes": "E-evenings, weekends, nights, F-all times", "line": "E-F", "url": "http:\/\/web.mta.info\/nyct\/service\/", "name": "Briarwood - Van Wyck Blvd" }, "geometry": { "type": "Point", "coordinates": [ -73.820692636374403, 40.709161815369448 ] } },
{ "type": "Feature", "properties": { "cartodb_id": 245, "notes": "E,F-all times, M-weekdays and evenings, R-all times exc nights", "line": "E-F-M-R", "url": "http:\/\/web.mta.info\/nyct\/service\/", "name": "Forest Hills - 71st Av" }, "geometry": { "type": "Point", "coordinates": [ -73.844516720126677, 40.721594309535853 ] } },
{ "type": "Feature", "properties": { "cartodb_id": 246, "notes": "F-all times", "line": "F", "url": "http:\/\/web.mta.info\/nyct\/service\/", "name": "Sutphin Blvd" }, "geometry": { "type": "Point", "coordinates": [ -73.810832998972288, 40.705417999067635 ] } },
{ "type": "Feature", "properties": { "cartodb_id": 247, "notes": "E,J-all times, Z-rush hours AM westbound, PM eastbound", "line": "E-J-Z", "url": "http:\/\/web.mta.info\/nyct\/service\/", "name": "Jamaica Ctr - Parsons \/ Archer" }, "geometry": { "type": "Point", "coordinates": [ -73.801096322989224, 40.702067376211865 ] } },
{ "type": "Feature", "properties": { "cartodb_id": 248, "notes": "2-all times, 5-rush hours AM southbound, PM northbound", "line": "2-5", "url": "http:\/\/web.mta.info\/nyct\/service\/", "name": "225th St" }, "geometry": { "type": "Point", "coordinates": [ -73.860214617727323, 40.888028258637824 ] } },
{ "type": "Feature", "properties": { "cartodb_id": 249, "notes": "6-all times", "line": "6", "url": "http:\/\/web.mta.info\/nyct\/service\/", "name": "Elder Ave" }, "geometry": { "type": "Point", "coordinates": [ -73.879158998747755, 40.82858400108929 ] } },
{ "type": "Feature", "properties": { "cartodb_id": 250, "notes": "6-all times", "line": "6", "url": "http:\/\/web.mta.info\/nyct\/service\/", "name": "Longwood Ave" }, "geometry": { "type": "Point", "coordinates": [ -73.896434998974115, 40.816103999972405 ] } },
{ "type": "Feature", "properties": { "cartodb_id": 251, "notes": "N-all times, Q-weekdays and evenings", "line": "N-Q", "url": "http:\/\/web.mta.info\/nyct\/service\/", "name": "Astoria Blvd" }, "geometry": { "type": "Point", "coordinates": [ -73.918095001092368, 40.770036999490856 ] } },
{ "type": "Feature", "properties": { "cartodb_id": 252, "notes": "N-all times, Q-weekdays and evenings", "line": "N-Q", "url": "http:\/\/web.mta.info\/nyct\/service\/", "name": "Astoria - Ditmars Blvd" }, "geometry": { "type": "Point", "coordinates": [ -73.912034000103077, 40.775035666523642 ] } },
{ "type": "Feature", "properties": { "cartodb_id": 253, "notes": "2-all times, 5-all times exc nights, skips rush hours AM southbound, PM northbound", "line": "2-5", "url": "http:\/\/web.mta.info\/nyct\/service\/", "name": "Jackson Ave" }, "geometry": { "type": "Point", "coordinates": [ -73.907701938708286, 40.81643746686396 ] } },
{ "type": "Feature", "properties": { "cartodb_id": 254, "notes": "2-all times, 5-all times exc nights, skips rush hours AM southbound, PM northbound", "line": "2-5", "url": "http:\/\/web.mta.info\/nyct\/service\/", "name": "Prospect Ave" }, "geometry": { "type": "Point", "coordinates": [ -73.901777787309157, 40.819487264838429 ] } },
{ "type": "Feature", "properties": { "cartodb_id": 255, "notes": "6-all times", "line": "6", "url": "http:\/\/web.mta.info\/nyct\/service\/", "name": "Cypress Ave" }, "geometry": { "type": "Point", "coordinates": [ -73.914041999947514, 40.805368000763579 ] } },
{ "type": "Feature", "properties": { "cartodb_id": 256, "notes": "2-all times, 5-all times exc nights, skips rush hours AM southbound, PM northbound", "line": "2-5", "url": "http:\/\/web.mta.info\/nyct\/service\/", "name": "174th St" }, "geometry": { "type": "Point", "coordinates": [ -73.887693598128863, 40.837195550170591 ] } },
{ "type": "Feature", "properties": { "cartodb_id": 257, "notes": "2-all times, 5-rush hours AM southbound, PM northbound", "line": "2-5", "url": "http:\/\/web.mta.info\/nyct\/service\/", "name": "Allerton Ave" }, "geometry": { "type": "Point", "coordinates": [ -73.867234228516239, 40.865483377939249 ] } },
{ "type": "Feature", "properties": { "cartodb_id": 258, "notes": "6-all times", "line": "6", "url": "http:\/\/web.mta.info\/nyct\/service\/", "name": "E 143rd St - St Mary's St" }, "geometry": { "type": "Point", "coordinates": [ -73.90765699936486, 40.808719000901398 ] } },
{ "type": "Feature", "properties": { "cartodb_id": 259, "notes": "4-all times", "line": "4", "url": "http:\/\/web.mta.info\/nyct\/service\/", "name": "Kingsbridge Rd" }, "geometry": { "type": "Point", "coordinates": [ -73.897174001017419, 40.867760000885788 ] } },
{ "type": "Feature", "properties": { "cartodb_id": 260, "notes": "4-all times", "line": "4", "url": "http:\/\/web.mta.info\/nyct\/service\/", "name": "Bedford Park Blvd - Lehman College" }, "geometry": { "type": "Point", "coordinates": [ -73.890064000694764, 40.873411999801192 ] } },
{ "type": "Feature", "properties": { "cartodb_id": 261, "notes": "3-all times", "line": "3", "url": "http:\/\/web.mta.info\/nyct\/service\/", "name": "Harlem - 148 St" }, "geometry": { "type": "Point", "coordinates": [ -73.93647000005555, 40.82388000080455 ] } },
{ "type": "Feature", "properties": { "cartodb_id": 262, "notes": "4-all times", "line": "4", "url": "http:\/\/web.mta.info\/nyct\/service\/", "name": "Mt Eden Ave" }, "geometry": { "type": "Point", "coordinates": [ -73.914684998603377, 40.844434000926761 ] } },
{ "type": "Feature", "properties": { "cartodb_id": 263, "notes": "B-rush hours, D-all times", "line": "B-D", "url": "http:\/\/web.mta.info\/nyct\/service\/", "name": "Fordham Rd" }, "geometry": { "type": "Point", "coordinates": [ -73.897749001023996, 40.861295998683488 ] } },
{ "type": "Feature", "properties": { "cartodb_id": 264, "notes": "4-all times", "line": "4", "url": "http:\/\/web.mta.info\/nyct\/service\/", "name": "170th St" }, "geometry": { "type": "Point", "coordinates": [ -73.917790997459264, 40.840074999930017 ] } },
{ "type": "Feature", "properties": { "cartodb_id": 265, "notes": "B-rush hours, D-all times", "line": "B-D", "url": "http:\/\/web.mta.info\/nyct\/service\/", "name": "Bedford Park Blvd" }, "geometry": { "type": "Point", "coordinates": [ -73.887137998895724, 40.873243998616438 ] } },
{ "type": "Feature", "properties": { "cartodb_id": 266, "notes": "1-all times", "line": "1", "url": "http:\/\/web.mta.info\/nyct\/service\/", "name": "Marble Hill - 225th St" }, "geometry": { "type": "Point", "coordinates": [ -73.909830999235496, 40.874560999417866 ] } },
{ "type": "Feature", "properties": { "cartodb_id": 267, "notes": "1-all times", "line": "1", "url": "http:\/\/web.mta.info\/nyct\/service\/", "name": "231st St" }, "geometry": { "type": "Point", "coordinates": [ -73.904834001078711, 40.87885599817934 ] } },
{ "type": "Feature", "properties": { "cartodb_id": 268, "notes": "1-all times", "line": "1", "url": "http:\/\/web.mta.info\/nyct\/service\/", "name": "215th St" }, "geometry": { "type": "Point", "coordinates": [ -73.915278999543531, 40.869443999460422 ] } },
{ "type": "Feature", "properties": { "cartodb_id": 269, "notes": "1-all times", "line": "1", "url": "http:\/\/web.mta.info\/nyct\/service\/", "name": "207th St" }, "geometry": { "type": "Point", "coordinates": [ -73.918819001323101, 40.864614000525847 ] } },
{ "type": "Feature", "properties": { "cartodb_id": 270, "notes": "A-all times", "line": "A", "url": "http:\/\/web.mta.info\/nyct\/service\/", "name": "Inwood - 207th St" }, "geometry": { "type": "Point", "coordinates": [ -73.919899001004637, 40.868071999997362 ] } },
{ "type": "Feature", "properties": { "cartodb_id": 271, "notes": "1-all times", "line": "1", "url": "http:\/\/web.mta.info\/nyct\/service\/", "name": "Van Cortlandt Park - 242nd St" }, "geometry": { "type": "Point", "coordinates": [ -73.898583000496473, 40.88924800011474 ] } },
{ "type": "Feature", "properties": { "cartodb_id": 272, "notes": "2-all times, 5-all times exc nights, skips rush hours AM southbound, PM northbound", "line": "2-5", "url": "http:\/\/web.mta.info\/nyct\/service\/", "name": "West Farms Sq - E Tremont Av" }, "geometry": { "type": "Point", "coordinates": [ -73.87996127877183, 40.840207632417972 ] } },
{ "type": "Feature", "properties": { "cartodb_id": 273, "notes": "2-all times, 5-rush hours AM southbound, PM northbound", "line": "2-5", "url": "http:\/\/web.mta.info\/nyct\/service\/", "name": "219th St" }, "geometry": { "type": "Point", "coordinates": [ -73.862509707886574, 40.88388797462526 ] } },
{ "type": "Feature", "properties": { "cartodb_id": 274, "notes": "4-all times", "line": "4", "url": "http:\/\/web.mta.info\/nyct\/service\/", "name": "Mosholu Pkwy" }, "geometry": { "type": "Point", "coordinates": [ -73.884654999887289, 40.879749999472267 ] } },
{ "type": "Feature", "properties": { "cartodb_id": 275, "notes": "D-all times", "line": "D", "url": "http:\/\/web.mta.info\/nyct\/service\/", "name": "Norwood - 205th St" }, "geometry": { "type": "Point", "coordinates": [ -73.878854999186885, 40.874811000111805 ] } },
{ "type": "Feature", "properties": { "cartodb_id": 276, "notes": "2-all times, 5-rush hours AM southbound, PM northbound", "line": "2-5", "url": "http:\/\/web.mta.info\/nyct\/service\/", "name": "Burke Ave" }, "geometry": { "type": "Point", "coordinates": [ -73.867053617476003, 40.871258802547686 ] } },
{ "type": "Feature", "properties": { "cartodb_id": 277, "notes": "5-all times", "line": "5", "url": "http:\/\/web.mta.info\/nyct\/service\/", "name": "Baychester Ave" }, "geometry": { "type": "Point", "coordinates": [ -73.838590998021516, 40.878663000373081 ] } },
{ "type": "Feature", "properties": { "cartodb_id": 278, "notes": "5-all times", "line": "5", "url": "http:\/\/web.mta.info\/nyct\/service\/", "name": "Eastchester - Dyre Ave" }, "geometry": { "type": "Point", "coordinates": [ -73.830834002174186, 40.888299999010073 ] } },
{ "type": "Feature", "properties": { "cartodb_id": 279, "notes": "F-all times", "line": "F", "url": "http:\/\/web.mta.info\/nyct\/service\/", "name": "Jamaica - 179th St" }, "geometry": { "type": "Point", "coordinates": [ -73.783817001764504, 40.712645666744017 ] } },
{ "type": "Feature", "properties": { "cartodb_id": 280, "notes": "2-all times", "line": "2", "url": "http:\/\/web.mta.info\/nyct\/service\/", "name": "Wakefield - 241st St" }, "geometry": { "type": "Point", "coordinates": [ -73.850619998795366, 40.90312500054123 ] } },
{ "type": "Feature", "properties": { "cartodb_id": 281, "notes": "S Franklin Av-Fulton St to Prospect Park-all times", "line": "S", "url": "http:\/\/web.mta.info\/nyct\/service\/", "name": "Botanic Garden" }, "geometry": { "type": "Point", "coordinates": [ -73.959244999456885, 40.670342666584368 ] } },
{ "type": "Feature", "properties": { "cartodb_id": 282, "notes": "L-all times", "line": "L", "url": "http:\/\/web.mta.info\/nyct\/service\/", "name": "Bushwick - Aberdeen" }, "geometry": { "type": "Point", "coordinates": [ -73.90526176305103, 40.682860625511843 ] } },
{ "type": "Feature", "properties": { "cartodb_id": 283, "notes": "L-all times", "line": "L", "url": "http:\/\/web.mta.info\/nyct\/service\/", "name": "Broadway Junction" }, "geometry": { "type": "Point", "coordinates": [ -73.903117579206821, 40.678456248428674 ] } },
{ "type": "Feature", "properties": { "cartodb_id": 284, "notes": "5-all times", "line": "5", "url": "http:\/\/web.mta.info\/nyct\/service\/", "name": "Gun Hill Rd" }, "geometry": { "type": "Point", "coordinates": [ -73.846384001517634, 40.869525999626759 ] } },
{ "type": "Feature", "properties": { "cartodb_id": 285, "notes": "2,5-all times", "line": "2-5", "url": "http:\/\/web.mta.info\/nyct\/service\/", "name": "E 180th St" }, "geometry": { "type": "Point", "coordinates": [ -73.873346095108829, 40.841863041218573 ] } },
{ "type": "Feature", "properties": { "cartodb_id": 286, "notes": "1-all times", "line": "1", "url": "http:\/\/web.mta.info\/nyct\/service\/", "name": "Dyckman St" }, "geometry": { "type": "Point", "coordinates": [ -73.925536000064696, 40.860531001387933 ] } },
{ "type": "Feature", "properties": { "cartodb_id": 287, "notes": "1-all times", "line": "1", "url": "http:\/\/web.mta.info\/nyct\/service\/", "name": "125th St" }, "geometry": { "type": "Point", "coordinates": [ -73.958372000970428, 40.815580999978913 ] } },
{ "type": "Feature", "properties": { "cartodb_id": 288, "notes": "S to Prospect Park-all times", "line": "S", "url": "http:\/\/web.mta.info\/nyct\/service\/", "name": "Franklin Ave - Fulton St" }, "geometry": { "type": "Point", "coordinates": [ -73.95582700110424, 40.680595665982601 ] } },
{ "type": "Feature", "properties": { "cartodb_id": 289, "notes": "2-all times, 5-all times exc nights", "line": "2-5", "url": "http:\/\/web.mta.info\/nyct\/service\/", "name": "149th St - Grand Concourse" }, "geometry": { "type": "Point", "coordinates": [ -73.926722474386096, 40.818330144097395 ] } },
{ "type": "Feature", "properties": { "cartodb_id": 290, "notes": "2-all times, 5-all times exc nights", "line": "2-5", "url": "http:\/\/web.mta.info\/nyct\/service\/", "name": "3rd Ave - 149th St" }, "geometry": { "type": "Point", "coordinates": [ -73.917791527609808, 40.816029252509992 ] } },
{ "type": "Feature", "properties": { "cartodb_id": 291, "notes": "4-all times", "line": "4", "url": "http:\/\/web.mta.info\/nyct\/service\/", "name": "167th St" }, "geometry": { "type": "Point", "coordinates": [ -73.921399997844247, 40.835536999336703 ] } },
{ "type": "Feature", "properties": { "cartodb_id": 292, "notes": "6-all times", "line": "6", "url": "http:\/\/web.mta.info\/nyct\/service\/", "name": "Brook Ave" }, "geometry": { "type": "Point", "coordinates": [ -73.919239999094273, 40.807565999876978 ] } },
{ "type": "Feature", "properties": { "cartodb_id": 293, "notes": "7-all times", "line": "7", "url": "http:\/\/web.mta.info\/nyct\/service\/", "name": "33rd St" }, "geometry": { "type": "Point", "coordinates": [ -73.930996999538365, 40.744586999839896 ] } },
{ "type": "Feature", "properties": { "cartodb_id": 294, "notes": "7-all times", "line": "7", "url": "http:\/\/web.mta.info\/nyct\/service\/", "name": "40th St" }, "geometry": { "type": "Point", "coordinates": [ -73.924015998488187, 40.743781001491328 ] } },
{ "type": "Feature", "properties": { "cartodb_id": 295, "notes": "A,D-all times, B-weekdays and evenings, C-all times exc nights", "line": "A-B-C-D", "url": "http:\/\/web.mta.info\/nyct\/service\/", "name": "145th St" }, "geometry": { "type": "Point", "coordinates": [ -73.944087928231127, 40.824766360871891 ] } },
{ "type": "Feature", "properties": { "cartodb_id": 296, "notes": "B-rush hours, D-all times, skips rush hours AM southbound, PM northbound", "line": "B-D", "url": "http:\/\/web.mta.info\/nyct\/service\/", "name": "155th St" }, "geometry": { "type": "Point", "coordinates": [ -73.938208998116181, 40.830134999981162 ] } },
{ "type": "Feature", "properties": { "cartodb_id": 297, "notes": "B-rush hours, D-all times, skips rush hours AM southbound, PM northbound", "line": "B-D", "url": "http:\/\/web.mta.info\/nyct\/service\/", "name": "161st St - Yankee Stadium" }, "geometry": { "type": "Point", "coordinates": [ -73.925650997754744, 40.827904998845845 ] } },
{ "type": "Feature", "properties": { "cartodb_id": 298, "notes": "A-all times, C-all times exc nights", "line": "A-C", "url": "http:\/\/web.mta.info\/nyct\/service\/", "name": "Utica Ave" }, "geometry": { "type": "Point", "coordinates": [ -73.930728999140257, 40.679363999505455 ] } },
{ "type": "Feature", "properties": { "cartodb_id": 299, "notes": "E-nights, R-all other times, M-weekdays and evenings", "line": "E-M-R", "url": "http:\/\/web.mta.info\/nyct\/service\/", "name": "Steinway St" }, "geometry": { "type": "Point", "coordinates": [ -73.920526471682706, 40.756987359125738 ] } },
{ "type": "Feature", "properties": { "cartodb_id": 300, "notes": "J-all times", "line": "J", "url": "http:\/\/web.mta.info\/nyct\/service\/", "name": "Kosciuszko St" }, "geometry": { "type": "Point", "coordinates": [ -73.928508999274115, 40.693172001291998 ] } },
{ "type": "Feature", "properties": { "cartodb_id": 301, "notes": "Z-rush hours AM westbound, PM eastbound, J-all other times", "line": "J-Z", "url": "http:\/\/web.mta.info\/nyct\/service\/", "name": "Gates Ave" }, "geometry": { "type": "Point", "coordinates": [ -73.922156001507489, 40.689583999013898 ] } },
{ "type": "Feature", "properties": { "cartodb_id": 302, "notes": "M-all times", "line": "M", "url": "http:\/\/web.mta.info\/nyct\/service\/", "name": "Central Ave" }, "geometry": { "type": "Point", "coordinates": [ -73.927242999028337, 40.697873000118307 ] } },
{ "type": "Feature", "properties": { "cartodb_id": 303, "notes": "M-all times", "line": "M", "url": "http:\/\/web.mta.info\/nyct\/service\/", "name": "Knickerbocker Ave" }, "geometry": { "type": "Point", "coordinates": [ -73.919720001886233, 40.698660001238032 ] } },
{ "type": "Feature", "properties": { "cartodb_id": 304, "notes": "N-all times, Q-weekdays and evenings", "line": "N-Q", "url": "http:\/\/web.mta.info\/nyct\/service\/", "name": "30th Ave" }, "geometry": { "type": "Point", "coordinates": [ -73.921479000173889, 40.766778666732968 ] } },
{ "type": "Feature", "properties": { "cartodb_id": 305, "notes": "L-all times", "line": "L", "url": "http:\/\/web.mta.info\/nyct\/service\/", "name": "Jefferson St" }, "geometry": { "type": "Point", "coordinates": [ -73.922913000031187, 40.706606665988701 ] } },
{ "type": "Feature", "properties": { "cartodb_id": 306, "notes": "L-all times", "line": "L", "url": "http:\/\/web.mta.info\/nyct\/service\/", "name": "Morgan Ave" }, "geometry": { "type": "Point", "coordinates": [ -73.933147000242073, 40.706151666807273 ] } },
{ "type": "Feature", "properties": { "cartodb_id": 407, "notes": "4-all times", "line": "4", "url": "http:\/\/web.mta.info\/nyct\/service\/", "name": "183rd St" }, "geometry": { "type": "Point", "coordinates": [ -73.903879001515307, 40.858407000408391 ] } },
{ "type": "Feature", "properties": { "cartodb_id": 307, "notes": "E-all times, M-weekdays and evenings, R-all times exc nights", "line": "E-M-R", "url": "http:\/\/web.mta.info\/nyct\/service\/", "name": "Queens Plz" }, "geometry": { "type": "Point", "coordinates": [ -73.937138239656932, 40.748917719863222 ] } },
{ "type": "Feature", "properties": { "cartodb_id": 308, "notes": "F-all times", "line": "F", "url": "http:\/\/web.mta.info\/nyct\/service\/", "name": "18th Ave" }, "geometry": { "type": "Point", "coordinates": [ -73.976970999657937, 40.629754666385807 ] } },
{ "type": "Feature", "properties": { "cartodb_id": 309, "notes": "R-all times", "line": "R", "url": "http:\/\/web.mta.info\/nyct\/service\/", "name": "77th St" }, "geometry": { "type": "Point", "coordinates": [ -74.025509999626593, 40.629741666886893 ] } },
{ "type": "Feature", "properties": { "cartodb_id": 310, "notes": "R-all times", "line": "R", "url": "http:\/\/web.mta.info\/nyct\/service\/", "name": "Bay Ridge Ave" }, "geometry": { "type": "Point", "coordinates": [ -74.023376999507263, 40.63496666682375 ] } },
{ "type": "Feature", "properties": { "cartodb_id": 311, "notes": "D-all times", "line": "D", "url": "http:\/\/web.mta.info\/nyct\/service\/", "name": "50th St" }, "geometry": { "type": "Point", "coordinates": [ -73.994658780551362, 40.636260890961388 ] } },
{ "type": "Feature", "properties": { "cartodb_id": 312, "notes": "N-all times", "line": "N", "url": "http:\/\/web.mta.info\/nyct\/service\/", "name": "Ft Hamilton Pkwy" }, "geometry": { "type": "Point", "coordinates": [ -74.005351000462724, 40.631385667224428 ] } },
{ "type": "Feature", "properties": { "cartodb_id": 313, "notes": "D-all times", "line": "D", "url": "http:\/\/web.mta.info\/nyct\/service\/", "name": "25th Ave" }, "geometry": { "type": "Point", "coordinates": [ -73.986829000114739, 40.597703666958544 ] } },
{ "type": "Feature", "properties": { "cartodb_id": 314, "notes": "D-all times", "line": "D", "url": "http:\/\/web.mta.info\/nyct\/service\/", "name": "Bay Pky" }, "geometry": { "type": "Point", "coordinates": [ -73.993676200052889, 40.601950461572287 ] } },
{ "type": "Feature", "properties": { "cartodb_id": 315, "notes": "N-all times", "line": "N", "url": "http:\/\/web.mta.info\/nyct\/service\/", "name": "20th Ave" }, "geometry": { "type": "Point", "coordinates": [ -73.984521998461105, 40.617108999865991 ] } },
{ "type": "Feature", "properties": { "cartodb_id": 316, "notes": "N-all times", "line": "N", "url": "http:\/\/web.mta.info\/nyct\/service\/", "name": "18th Ave" }, "geometry": { "type": "Point", "coordinates": [ -73.990453998659916, 40.620686997680011 ] } },
{ "type": "Feature", "properties": { "cartodb_id": 317, "notes": "R-all times", "line": "R", "url": "http:\/\/web.mta.info\/nyct\/service\/", "name": "Bay Ridge - 95th St" }, "geometry": { "type": "Point", "coordinates": [ -74.030876000857631, 40.616621667259501 ] } },
{ "type": "Feature", "properties": { "cartodb_id": 318, "notes": "R-all times", "line": "R", "url": "http:\/\/web.mta.info\/nyct\/service\/", "name": "86th St" }, "geometry": { "type": "Point", "coordinates": [ -74.028397999986382, 40.622686667150248 ] } },
{ "type": "Feature", "properties": { "cartodb_id": 319, "notes": "D-all times", "line": "D", "url": "http:\/\/web.mta.info\/nyct\/service\/", "name": "79th St" }, "geometry": { "type": "Point", "coordinates": [ -74.000582874315043, 40.613158925695146 ] } },
{ "type": "Feature", "properties": { "cartodb_id": 320, "notes": "D-all times", "line": "D", "url": "http:\/\/web.mta.info\/nyct\/service\/", "name": "71st St" }, "geometry": { "type": "Point", "coordinates": [ -73.998840948506839, 40.619258709772701 ] } },
{ "type": "Feature", "properties": { "cartodb_id": 321, "notes": "D-all times", "line": "D", "url": "http:\/\/web.mta.info\/nyct\/service\/", "name": "20th Ave" }, "geometry": { "type": "Point", "coordinates": [ -73.998174321575661, 40.604676998169296 ] } },
{ "type": "Feature", "properties": { "cartodb_id": 322, "notes": "D-all times", "line": "D", "url": "http:\/\/web.mta.info\/nyct\/service\/", "name": "18th Ave" }, "geometry": { "type": "Point", "coordinates": [ -74.001592592394047, 40.607735731717398 ] } },
{ "type": "Feature", "properties": { "cartodb_id": 323, "notes": "D-all times", "line": "D", "url": "http:\/\/web.mta.info\/nyct\/service\/", "name": "62nd St" }, "geometry": { "type": "Point", "coordinates": [ -73.996857249948619, 40.626224462922167 ] } },
{ "type": "Feature", "properties": { "cartodb_id": 324, "notes": "N-all times", "line": "N", "url": "http:\/\/web.mta.info\/nyct\/service\/", "name": "New Utrecht Ave" }, "geometry": { "type": "Point", "coordinates": [ -73.996353000259646, 40.624841667258849 ] } },
{ "type": "Feature", "properties": { "cartodb_id": 325, "notes": "F-all times", "line": "F", "url": "http:\/\/web.mta.info\/nyct\/service\/", "name": "Ave U" }, "geometry": { "type": "Point", "coordinates": [ -73.973376419748831, 40.595924825517471 ] } },
{ "type": "Feature", "properties": { "cartodb_id": 326, "notes": "F-all times", "line": "F", "url": "http:\/\/web.mta.info\/nyct\/service\/", "name": "Kings Hwy" }, "geometry": { "type": "Point", "coordinates": [ -73.972355308524385, 40.603258405128258 ] } },
{ "type": "Feature", "properties": { "cartodb_id": 327, "notes": "B-weekdays and evenings, Q-all times", "line": "B-Q", "url": "http:\/\/web.mta.info\/nyct\/service\/", "name": "Brighton Beach" }, "geometry": { "type": "Point", "coordinates": [ -73.961353785987953, 40.577710196642428 ] } },
{ "type": "Feature", "properties": { "cartodb_id": 328, "notes": "B-weekdays and evenings, Q-all times", "line": "B-Q", "url": "http:\/\/web.mta.info\/nyct\/service\/", "name": "Sheepshead Bay" }, "geometry": { "type": "Point", "coordinates": [ -73.95405791257906, 40.586547547075369 ] } },
{ "type": "Feature", "properties": { "cartodb_id": 329, "notes": "Q-all times", "line": "Q", "url": "http:\/\/web.mta.info\/nyct\/service\/", "name": "Ave U" }, "geometry": { "type": "Point", "coordinates": [ -73.955811223162996, 40.599308950954729 ] } },
{ "type": "Feature", "properties": { "cartodb_id": 330, "notes": "B-weekdays and evenings, Q-all times", "line": "B-Q", "url": "http:\/\/web.mta.info\/nyct\/service\/", "name": "Kings Hwy" }, "geometry": { "type": "Point", "coordinates": [ -73.957608735380816, 40.608638645395992 ] } },
{ "type": "Feature", "properties": { "cartodb_id": 331, "notes": "N-all times", "line": "N", "url": "http:\/\/web.mta.info\/nyct\/service\/", "name": "Ave U" }, "geometry": { "type": "Point", "coordinates": [ -73.979084000994263, 40.597235999920422 ] } },
{ "type": "Feature", "properties": { "cartodb_id": 332, "notes": "N-all times", "line": "N", "url": "http:\/\/web.mta.info\/nyct\/service\/", "name": "Kings Hwy" }, "geometry": { "type": "Point", "coordinates": [ -73.980373002293419, 40.604058999804899 ] } },
{ "type": "Feature", "properties": { "cartodb_id": 333, "notes": "F-all times", "line": "F", "url": "http:\/\/web.mta.info\/nyct\/service\/", "name": "Neptune Ave" }, "geometry": { "type": "Point", "coordinates": [ -73.974592728188057, 40.580738758491449 ] } },
{ "type": "Feature", "properties": { "cartodb_id": 334, "notes": "F-all times", "line": "F", "url": "http:\/\/web.mta.info\/nyct\/service\/", "name": "Ave X" }, "geometry": { "type": "Point", "coordinates": [ -73.974265999689038, 40.589449666625256 ] } },
{ "type": "Feature", "properties": { "cartodb_id": 335, "notes": "D-all times", "line": "D", "url": "http:\/\/web.mta.info\/nyct\/service\/", "name": "Bay 50th St" }, "geometry": { "type": "Point", "coordinates": [ -73.983765000459442, 40.588840666519296 ] } },
{ "type": "Feature", "properties": { "cartodb_id": 336, "notes": "N-all times", "line": "N", "url": "http:\/\/web.mta.info\/nyct\/service\/", "name": "Gravesend - 86th St" }, "geometry": { "type": "Point", "coordinates": [ -73.978188999362729, 40.592465000888559 ] } },
{ "type": "Feature", "properties": { "cartodb_id": 337, "notes": "F-all times", "line": "F", "url": "http:\/\/web.mta.info\/nyct\/service\/", "name": "Ave P" }, "geometry": { "type": "Point", "coordinates": [ -73.973002815287501, 40.608842808949909 ] } },
{ "type": "Feature", "properties": { "cartodb_id": 339, "notes": "F-all times", "line": "F", "url": "http:\/\/web.mta.info\/nyct\/service\/", "name": "Bay Pky" }, "geometry": { "type": "Point", "coordinates": [ -73.975256978221481, 40.620731623167863 ] } },
{ "type": "Feature", "properties": { "cartodb_id": 340, "notes": "Q-all times", "line": "Q", "url": "http:\/\/web.mta.info\/nyct\/service\/", "name": "Ave M" }, "geometry": { "type": "Point", "coordinates": [ -73.959243105221489, 40.6173977444437 ] } },
{ "type": "Feature", "properties": { "cartodb_id": 341, "notes": "N-all times", "line": "N", "url": "http:\/\/web.mta.info\/nyct\/service\/", "name": "Bay Pky" }, "geometry": { "type": "Point", "coordinates": [ -73.981780010692916, 40.611455789890037 ] } },
{ "type": "Feature", "properties": { "cartodb_id": 342, "notes": "F-all times", "line": "F", "url": "http:\/\/web.mta.info\/nyct\/service\/", "name": "Ave I" },